[
  {
    "id": "d5061709ceea1c82fc65558aaf08ae6d9a38fbbf",
    "name": "臺灣民主紀念園區",
    "place_id": "ChIJf_WYu52pQjQREPcmeNLYwVs",
    "rating": 4.2,
    "geometry": {
      "location": {
        "lat": 25.0356791,
        "lng": 121.5196742
      }
    }
  },
  {
    "id": "a2e6909d2185294b5baa1cd264d7ab23523086c0",
    "name": "國立歷史博物館",
    "place_id": "ChIJzx49raOpQjQR7NYRaIqDppk",
    "rating": 4.3,
    "geometry": {
      "location": {
        "lat": 25.031454,
        "lng": 121.511227
      }
    }
  },
  {
    "id": "31cffcb819266a6773b601958c1d49c9064e6647",
    "name": "西門紅樓",
    "place_id": "ChIJi-yspAmpQjQRxcHc_lwnNHw",
    "rating": 4.1,
    "geometry": {
      "location": {
        "lat": 25.0420139,
        "lng": 121.5068592
      }
    }
  },
  {
    "id": "2028293adf44a04147d92463cfb6ddedde78239e",
    "name": "華山1914文創園區",
    "place_id": "ChIJbSTgI2WpQjQRcVwWB2cnyfE",
    "rating": 4.3,
    "geometry": {
      "location": {
        "lat": 25.0441303,
        "lng": 121.5293995
      }
    }
  },
  {
    "id": "3ad48610bd9624727c92b3a13d20d380f3674ca8",
    "name": "台北植物園",
    "place_id": "ChIJe1ASN0-pQjQRIeghXqXkkAg",
    "rating": 4.4,
    "geometry": {
      "location": {
        "lat": 25.0322049,
        "lng": 121.5098835
      }
    }
  },
  {
    "id": "5ebb78a3acf718a8723d4df286fb0e52d98a3ec1",
    "name": "剝皮寮歷史街區",
    "place_id": "ChIJ3bYX0KipQjQR6Q_UrbthM_8",
    "rating": 4,
    "geometry": {
      "location": {
        "lat": 25.0367231,
        "lng": 121.5016329
      }
    }
  },
  {
    "id": "0e9819557063b2cab19669edd0ec216d384db289",
    "name": "師大夜市",
    "place_id": "ChIJYb4lRIWpQjQREaRSQFRYYZc",
    "rating": 3.9,
    "geometry": {
      "location": {
        "lat": 25.0246244,
        "lng": 121.5293362
      }
    }
  },
  {
    "id": "1b03e45a473e0c34bbed7e550ffe87117fc81b56",
    "name": "中正紀念堂大忠門",
    "place_id": "ChIJryltAHapQjQRSsZEBvab97k",
    "rating": 4.1,
    "geometry": {
      "location": {
        "lat": 25.0359706,
        "lng": 121.5226123
      }
    }
  },
  {
    "id": "9faaeda3ebfcbe3a7b31f24ae73eaa8a047054d0",
    "name": "中正紀念堂",
    "place_id": "ChIJTamiuZ2pQjQRsmnfkkID6UM",
    "rating": 4.3,
    "geometry": {
      "location": {
        "lat": 25.0346578,
        "lng": 121.5217756
      }
    }
  },
  {
    "id": "d3854e06a864b7fe1ea20b354e3d8039470d42e4",
    "name": "善導寺",
    "place_id": "ChIJkyk2KHCpQjQR7h3ggRfG2fU",
    "rating": 3.9,
    "geometry": {
      "location": {
        "lat": 25.0447622,
        "lng": 121.5245638
      }
    }
  },
  {
    "id": "65bffc2044acadeb89b34dab60e5f930069877a0",
    "name": "臺北市客家文化主題公園",
    "place_id": "ChIJM0qc95GpQjQRSBGrhjW-qTo",
    "rating": 4,
    "geometry": {
      "location": {
        "lat": 25.0202507,
        "lng": 121.5253585
      }
    }
  },
  {
    "id": "90729fa152d71523c436d2673d5b2d317e8c3c4b",
    "name": "二二八和平公園",
    "place_id": "ChIJKX1kH3WpQjQRcyy76pvtt-s",
    "rating": 4.3,
    "geometry": {
      "location": {
        "lat": 25.0418254,
        "lng": 121.5149875
      }
    }
  },
  {
    "id": "c130ad9409dbdad1e0c7e26a73f27e6589c53d00",
    "name": "青年公園",
    "place_id": "ChIJZQF167upQjQRqA9HhykFV-c",
    "rating": 4.3,
    "geometry": {
      "location": {
        "lat": 25.0230556,
        "lng": 121.5052778
      }
    }
  },
  {
    "id": "32ad7466171cfa2e63d421188742292a898afb9f",
    "name": "國立臺灣博物館",
    "place_id": "ChIJcRV3WHOpQjQRFpgzTpxZWgo",
    "rating": 4.3,
    "geometry": {
      "location": {
        "lat": 25.042754,
        "lng": 121.515034
      }
    }
  },
  {
    "id": "3a0443d894c7cfcbcc5c3943a08a062985754355",
    "name": "殷海光故居",
    "place_id": "ChIJn9bVD4apQjQRIyvOJmpcRDg",
    "rating": 4.4,
    "geometry": {
      "location": {
        "lat": 25.0241829,
        "lng": 121.5319949
      }
    }
  },
  {
    "id": "67e6ab5ebb0e2bb1a7556edafe2b65fd3c514573",
    "name": "袖珍博物館",
    "place_id": "ChIJbVjU3GGpQjQRf-842jJJufc",
    "rating": 4.2,
    "geometry": {
      "location": {
        "lat": 25.0503431,
        "lng": 121.536144
      }
    }
  },
  {
    "id": "ade6d977db7ac488d82ea8317bee5be7ba0f83ba",
    "name": "台北當代藝術館",
    "place_id": "ChIJc-TxSWypQjQR-8Eh7elK97Q",
    "rating": 4.3,
    "geometry": {
      "location": {
        "lat": 25.0507246,
        "lng": 121.5189745
      }
    }
  },
  {
    "id": "dc6b14fb23d1a55a6c63b3afaba98b8ddea500ff",
    "name": "大安森林公園",
    "place_id": "ChIJzXXa-3-pQjQRcWGgoe3EsPs",
    "rating": 4.4,
    "geometry": {
      "location": {
        "lat": 25.0293227,
        "lng": 121.5359793
      }
    }
  },
  {
    "id": "cdded3d3e4d5b6c12159dd100d09707832ee4758",
    "name": "青田七六",
    "place_id": "ChIJU6Wht4apQjQRYlBcxJ1liEk",
    "rating": 4.2,
    "geometry": {
      "location": {
        "lat": 25.027954,
        "lng": 121.532607
      }
    }
  },
  {
    "id": "7109bba5c97c84513323821c446d37308051e783",
    "name": "梁實秋故居",
    "place_id": "ChIJbQoYhY-pQjQRxm0c4eecB1A",
    "rating": 4.4,
    "geometry": {
      "location": {
        "lat": 25.0238237,
        "lng": 121.5278787
      }
    }
  },
  {
    "id": "7109bba5c97c84513323821c446d37308051e783",
    "name": "幾米月亮公車",
    "place_id": "ChIJ18zXSrGrQjQR3k7dwGFeoX4",
    "rating": 4.3,
    "geometry": {
      "location": {
        "lat": 25.0326725,
		"lng": 121.5657205
      }
    }
  },
  {
    "id": "56fdff93ef89953534500bd20ffa96fba207c912",
    "name": "四四南村簡單市集",
    "place_id": "ChIJ18zXSrGrQjQR3k7dwGFeoX4",
    "rating": 4.1,
    "geometry": {
      "location": {
        "lat": 25.0313421,
		"lng": 121.5619356
      }
    }
  },
  {
    "id": "207bda8c169b1be409735d520ea09227cd54197f",
    "name": "饒河街觀光夜市",
    "place_id": "ChIJg6W0DZyrQjQR9vZdgYMRoj0",
    "rating": 4.2,
    "geometry": {
      "location": {
        "lat": 25.0509126,
		"lng": 121.5775471
      }
    }
  },
  {
    "id": "b5fb30e03b435403aabc3a700e3fca32bfec93cd",
    "name": "富陽自然生態公園",
    "place_id": "ChIJfQNTLDiqQjQRfVU8bVpiGS0",
    "rating": 4.3,
    "geometry": {
      "location": {
        "lat": 25.016957,
		"lng": 121.557191
      }
    }
  },
  {
    "id": "87bfd69ef47ff4a60108183d48fb54b2e3632295",
    "name": "國立故宮博物院",
    "place_id": "ChIJfUpAzTqsQjQRwQl6ORhwbV0",
    "rating": 4.3,
    "geometry": {
      "location": {
        "lat": 25.1023554,
		"lng": 121.5484925
      }
    }
  },
  {
    "id": "29f2a164b032c2bd8550124127c12d1d54e19033",
    "name": "碧湖公園",
    "place_id": "ChIJM4pUiIqsQjQRCsQkmG2dHxU",
    "rating": 4.4,
    "geometry": {
      "location": {
        "lat": 25.08262089999999,
		"lng": 121.5830209
      }
    }
  },
  {
    "id": "87bfd69ef47ff4a60108183d48fb54b2e3632295",
    "name": "國立故宮博物院",
    "place_id": "ChIJfUpAzTqsQjQRwQl6ORhwbV0",
    "rating": 4.3,
    "geometry": {
      "location": {
        "lat": 25.1023554,
		"lng": 121.5484925
      }
    }
  },
  {
    "id": "90729fa152d71523c436d2673d5b2d317e8c3c4b",
    "name": "二二八和平公園",
    "place_id": "ChIJKX1kH3WpQjQRcyy76pvtt-s",
    "rating": 4.3,
    "geometry": {
      "location": {
        "lat": 25.0418254,
		"lng": 121.5149875
      }
    }
  },
  {
    "id": "06c9f19e064b12943b4aef7c4ce0a5178b48df3a",
    "name": "京華城Living Mall",
    "place_id": "ChIJp3ENeZWrQjQRaRuE9wSdUNM",
    "rating": 3.7,
    "geometry": {
      "location": {
        "lat": 25.047848,
		"lng": 121.561924
      }
    }
  },
  {
    "id": "5e18104eef220442a7dc84425bc9bbc9f399571a",
    "name": "國立國父紀念館",
    "place_id": "ChIJwyJxyO6pQjQRilcOb_lBRr4",
    "rating": 4.3,
    "geometry": {
      "location": {
        "lat": 25.0400306,
		"lng": 121.5602452
      }
    }
  },
  {
    "id": "071ee01b29b9320114adb26644b383eb8dd33e0e",
    "name": "臺北市立動物園",
    "place_id": "ChIJj4EySmCqQjQRZte0Cf0G_qo",
    "rating": 4.3,
    "geometry": {
      "location": {
        "lat": 24.9988551,
		"lng": 121.5810585
      }
    }
  },
  {
    "id": "b60f4ba2d99e6049d3c50357df0a05703daf9de1",
    "name": "行天宮",
    "place_id": "ChIJG3jOqVmpQjQRlMAW5wvvwrA",
    "rating": 4.6,
    "geometry": {
      "location": {
        "lat": 25.06307709999999,
		"lng": 121.5338999
      }
    }
  },
  {
    "id": "90385c750a6164a82f006c965fb3d7a16656c392",
    "name": "臺北101觀景台",
    "place_id": "ChIJSTLZ6barQjQRMdkCqrP3CNU",
    "rating": 4.4,
    "geometry": {
      "location": {
        "lat": 25.0337,
		"lng": 121.5640425
      }
    }
  },
    {
    "id": "c171e00af46221602181b091c488917868a98f4a",
    "name": "臺北101購物中心",
    "place_id": "ChIJraeA2rarQjQRPBBjyR3RxKw",
    "rating": 4.3,
    "geometry": {
      "location": {
        "lat": 25.0337985,
		"lng": 121.564644
      }
    }
  },
    {
    "id": "c074aaac4999bdde9e64e886a779a2aff156fffa",
    "name": "松山文創園區",
    "place_id": "ChIJO0vOI7-rQjQR3Pl9_4cPK8g",
    "rating": 4.2,
    "geometry": {
      "location": {
        "lat": 25.0436921,
		"lng": 121.5606419
      }
    }
  },
    {
    "id": "2f3b78bc5e41f235bf44195c7dacc2530e0c15c9",
    "name": "台北霞海城隍廟",
    "place_id": "ChIJ58RTchSpQjQR0nPhT8U-bWk",
    "rating": 4.4,
    "geometry": {
      "location": {
        "lat": 25.0556001,
		"lng": 121.510168
      }
    }
  },
    {
    "id": "18b25203d9b6d2a4eccdf40a2c1664ed55752271",
    "name": "松山機場觀景台",
    "place_id": "ChIJXd9DqPGrQjQRSQOKxx5Ns34",
    "rating": 4.3,
    "geometry": {
      "location": {
        "lat": 25.0642238,
		"lng": 121.5508248
      }
    }
  }
]