[{"price":"13005.00","address":"\u4e2d\u83ef\u8def\u4e8c\u6bb51\u865f, \u4e2d\u6b63\u5340, \u53f0\u5317\u5e02","name":"\u53f0\u5317\u82b1\u5712\u5927\u9152\u5e97","stars":5,"review_nr":935,"currency_code":"TWD","location":{"lat":25.0365724730557,"lng":121.506798863411},"detail_type":"object","detail":{"type":"hotel","rating":3.9,"description":"","name":"\u53f0\u5317\u82b1\u5712\u5927\u9152\u5e97","imgUrl":"\/api\/hotels\/photo\/252201","price":"13005.00","bookingUrl":"TODO","FBComments":[]}},{"price":"8245.00","address":"No. 4, Xiushan Street, \u4e2d\u6b63\u5340, \u53f0\u5317\u5e02","name":"\u5fb7\u7acb\u838a\u9152\u5e97","stars":4,"review_nr":7786,"currency_code":"TWD","location":{"lat":25.0423369017886,"lng":121.509168446697},"detail_type":"object","detail":{"type":"hotel","rating":3.9,"description":"","name":"\u5fb7\u7acb\u838a\u9152\u5e97","imgUrl":"\/api\/hotels\/photo\/1324124","price":"8245.00","bookingUrl":"TODO","FBComments":[]}},{"price":"8976.00","address":"\u4fe1\u7fa9\u8def\u4e09\u6bb511\u865f, \u5927\u5b89\u5340, \u53f0\u5317\u5e02","name":"\u9e97\u90fd\u552f\u5ba2\u6a02\u98ef\u5e97","stars":3,"review_nr":615,"currency_code":"TWD","location":{"lat":25.0337740855688,"lng":121.533776521683},"detail_type":"object","detail":{"type":"hotel","rating":3.9,"description":"","name":"\u9e97\u90fd\u552f\u5ba2\u6a02\u98ef\u5e97","imgUrl":"\/api\/hotels\/photo\/298430","price":"8976.00","bookingUrl":"TODO","FBComments":[]}},{"price":"13464.00","address":"\u6797\u68ee\u5317\u8def80\u865f, \u4e2d\u5c71\u5340, \u53f0\u5317\u5e02","name":"\u5929\u95a3\u9152\u5e97\u53f0\u5317\u9577\u5b89","stars":4,"review_nr":513,"currency_code":"TWD","location":{"lat":25.049788310475,"lng":121.524538993835},"detail_type":"object","detail":{"type":"hotel","rating":3.9,"description":"","name":"\u5929\u95a3\u9152\u5e97\u53f0\u5317\u9577\u5b89","imgUrl":"\/api\/hotels\/photo\/469954","price":"13464.00","bookingUrl":"TODO","FBComments":[]}},{"price":"12285.00","address":"\u5fe0\u5b5d\u897f\u8def\u4e00\u6bb538\u865f, \u4e2d\u6b63\u5340, \u53f0\u5317\u5e02","name":"\u53f0\u5317\u51f1\u6492\u5927\u98ef\u5e97","stars":4,"review_nr":2178,"currency_code":"TWD","location":{"lat":25.0463001092889,"lng":121.516371667385},"detail_type":"object","detail":{"type":"hotel","rating":3.9,"description":"","name":"\u53f0\u5317\u51f1\u6492\u5927\u98ef\u5e97","imgUrl":"\/api\/hotels\/photo\/73016","price":"12285.00","bookingUrl":"TODO","FBComments":[]}},{"price":"6696.00","address":"\u6f22\u53e3\u8857\u4e00\u6bb564\u865f, \u4e2d\u6b63\u5340, \u53f0\u5317\u5e02","name":"Hotel M\u53f0\u5317\u9580\u7cbe\u54c1\u65c5\u5e97","stars":3,"review_nr":3579,"currency_code":"TWD","location":{"lat":25.0451247621891,"lng":121.512621931213},"detail_type":"object","detail":{"type":"hotel","rating":3.9,"description":"","name":"Hotel M\u53f0\u5317\u9580\u7cbe\u54c1\u65c5\u5e97","imgUrl":"\/api\/hotels\/photo\/1700616","price":"6696.00","bookingUrl":"TODO","FBComments":[]}},{"price":"15426.00","address":"\u5e02\u6c11\u5927\u90533\u6bb583\u865f, \u4e2d\u5c71\u5340, \u53f0\u5317\u5e02","name":"\u7f8e\u9e97\u4fe1\u82b1\u5712\u9152\u5e97","stars":5,"review_nr":473,"currency_code":"TWD","location":{"lat":25.0448979969771,"lng":121.537081003189},"detail_type":"object","detail":{"type":"hotel","rating":3.9,"description":"","name":"\u7f8e\u9e97\u4fe1\u82b1\u5712\u9152\u5e97","imgUrl":"\/api\/hotels\/photo\/591772","price":"15426.00","bookingUrl":"TODO","FBComments":[]}},{"price":"22559.00","address":"\u5fe0\u5b5d\u6771\u8def1\u6bb512 \u865f, \u4e2d\u6b63\u5340, \u53f0\u5317\u5e02","name":"\u53f0\u5317\u559c\u4f86\u767b\u5927\u98ef\u5e97","stars":5,"review_nr":353,"currency_code":"TWD","location":{"lat":25.0445286337,"lng":121.522092819214},"detail_type":"object","detail":{"type":"hotel","rating":3.9,"description":"","name":"\u53f0\u5317\u559c\u4f86\u767b\u5927\u98ef\u5e97","imgUrl":"\/api\/hotels\/photo\/334583","price":"22559.00","bookingUrl":"TODO","FBComments":[]}},{"price":"6069.00","address":"\u91d1\u5c71\u5357\u8def\u4e00\u6bb580\u865f, \u4e2d\u6b63\u5340, \u53f0\u5317\u5e02","name":"\u661f\u8fb0\u98ef\u5e97","stars":3,"review_nr":1538,"currency_code":"TWD","location":{"lat":25.0363974997646,"lng":121.527636945248},"detail_type":"object","detail":{"type":"hotel","rating":3.9,"description":"","name":"\u661f\u8fb0\u98ef\u5e97","imgUrl":"\/api\/hotels\/photo\/287102","price":"6069.00","bookingUrl":"TODO","FBComments":[]}},{"price":"7980.00","address":"\u61f7\u5be7\u885734\u865f, \u4e2d\u6b63\u5340, \u53f0\u5317\u5e02","name":"\u65c5\u6a02\u5e8f\u7cbe\u54c1\u65c5\u9928\u7ad9\u524d\u4e09\u9928","stars":3,"review_nr":1131,"currency_code":"TWD","location":{"lat":25.0450709,"lng":121.514047},"detail_type":"object","detail":{"type":"hotel","rating":3.9,"description":"","name":"\u65c5\u6a02\u5e8f\u7cbe\u54c1\u65c5\u9928\u7ad9\u524d\u4e09\u9928","imgUrl":"\/api\/hotels\/photo\/1455398","price":"7980.00","bookingUrl":"TODO","FBComments":[]}},{"price":"10832.00","address":"\u91d1\u5c71\u5357\u8def\u4e00\u6bb571\u865f, \u4e2d\u6b63\u5340, \u53f0\u5317\u5e02","name":"\u91d1\u4f86\u5546\u65c5","stars":3,"review_nr":431,"currency_code":"TWD","location":{"lat":25.0372529223705,"lng":121.528181433678},"detail_type":"object","detail":{"type":"hotel","rating":3.9,"description":"","name":"\u91d1\u4f86\u5546\u65c5","imgUrl":"\/api\/hotels\/photo\/184800","price":"10832.00","bookingUrl":"TODO","FBComments":[]}},{"price":"6593.00","address":"\u958b\u5c01\u8857\u4e00\u6bb533\u865f, \u4e2d\u6b63\u5340, \u53f0\u5317\u5e02","name":"\u53f0\u5317\u65e5\u8a18\u65c5\u5e97-\u53f0\u5317\u8eca\u7ad9\u9928","stars":3,"review_nr":4573,"currency_code":"TWD","location":{"lat":25.0460330802488,"lng":121.513043559524},"detail_type":"object","detail":{"type":"hotel","rating":3.9,"description":"","name":"\u53f0\u5317\u65e5\u8a18\u65c5\u5e97-\u53f0\u5317\u8eca\u7ad9\u9928","imgUrl":"\/api\/hotels\/photo\/1518894","price":"6593.00","bookingUrl":"TODO","FBComments":[]}},{"price":"6156.00","address":"12 F, No. 90, Section 1, Zhonghua Road, \u842c\u83ef\u5340, \u53f0\u5317\u5e02","name":"\u897f\u9580\u65e5\u8a18\u65c5\u5e97","stars":3,"review_nr":1327,"currency_code":"TWD","location":{"lat":25.0446334284928,"lng":121.508577167988},"detail_type":"object","detail":{"type":"hotel","rating":3.9,"description":"","name":"\u897f\u9580\u65e5\u8a18\u65c5\u5e97","imgUrl":"\/api\/hotels\/photo\/1629879","price":"6156.00","bookingUrl":"TODO","FBComments":[]}},{"price":"8966.00","address":"\u5e02\u6c11\u5927\u9053\u4e00\u6bb5209\u865f1\u6a13, \u5927\u540c\u5340, \u53f0\u5317\u5e02","name":"\u4eac\u7ad9\u570b\u969b\u9152\u5e97\u5f0f\u516c\u5bd3","stars":3,"review_nr":1068,"currency_code":"TWD","location":{"lat":25.048839422661,"lng":121.517275571823},"detail_type":"object","detail":{"type":"hotel","rating":3.9,"description":"","name":"\u4eac\u7ad9\u570b\u969b\u9152\u5e97\u5f0f\u516c\u5bd3","imgUrl":"\/api\/hotels\/photo\/435467","price":"8966.00","bookingUrl":"TODO","FBComments":[]}},{"price":"6876.00","address":"\u4e2d\u83ef\u8def\u4e00\u6bb5152\u865f5F, \u842c\u83ef\u5340, \u53f0\u5317\u5e02","name":"\u53f0\u5317\u65e5\u8a18","stars":3,"review_nr":1258,"currency_code":"TWD","location":{"lat":25.04276928282,"lng":121.508043408394},"detail_type":"object","detail":{"type":"hotel","rating":3.9,"description":"","name":"\u53f0\u5317\u65e5\u8a18","imgUrl":"\/api\/hotels\/photo\/432565","price":"6876.00","bookingUrl":"TODO","FBComments":[]}},{"price":"6606.00","address":"\u842c\u83ef\u5340\u4e2d\u83ef\u8def\u4e00\u6bb590\u865f3\u6a13, \u842c\u83ef\u5340, \u53f0\u5317\u5e02","name":"\u53f0\u5317\u65e5\u8a18\u65c5\u5e97-\u897f\u9580\u6377\u904b\u9928","stars":3,"review_nr":2287,"currency_code":"TWD","location":{"lat":25.0446695750817,"lng":121.508676409721},"detail_type":"object","detail":{"type":"hotel","rating":3.9,"description":"","name":"\u53f0\u5317\u65e5\u8a18\u65c5\u5e97-\u897f\u9580\u6377\u904b\u9928","imgUrl":"\/api\/hotels\/photo\/673875","price":"6606.00","bookingUrl":"TODO","FBComments":[]}},{"price":"9174.00","address":"\u9928\u524d\u8def8\u865f11\u6a13, \u4e2d\u6b63\u5340, \u53f0\u5317\u5e02","name":"\u65c5\u6a02\u5e8f\u7cbe\u54c1\u65c5\u9928\u7ad9\u524d\u4e00\u9928","stars":3,"review_nr":1084,"currency_code":"TWD","location":{"lat":25.0457829253148,"lng":121.514906063621},"detail_type":"object","detail":{"type":"hotel","rating":3.9,"description":"","name":"\u65c5\u6a02\u5e8f\u7cbe\u54c1\u65c5\u9928\u7ad9\u524d\u4e00\u9928","imgUrl":"\/api\/hotels\/photo\/604572","price":"9174.00","bookingUrl":"TODO","FBComments":[]}},{"price":"8389.00","address":"\u6f22\u53e3\u8857\u4e00\u6bb515\u865f, \u4e2d\u6b63\u5340, \u53f0\u5317\u5e02","name":"\u65c5\u6a02\u5e8f\u7cbe\u54c1\u65c5\u9928\u7ad9\u524d\u4e8c\u9928","stars":3,"review_nr":1381,"currency_code":"TWD","location":{"lat":25.0452369098587,"lng":121.514426082209},"detail_type":"object","detail":{"type":"hotel","rating":3.9,"description":"","name":"\u65c5\u6a02\u5e8f\u7cbe\u54c1\u65c5\u9928\u7ad9\u524d\u4e8c\u9928","imgUrl":"\/api\/hotels\/photo\/1135493","price":"8389.00","bookingUrl":"TODO","FBComments":[]}},{"price":"6336.00","address":"\u897f\u5be7\u5357\u8def70\u865f6\u6a13, \u842c\u83ef\u5340, \u53f0\u5317\u5e02","name":"\u611b\u5ba2\u767c\u6642\u5c1a\u65c5\u9928\u842c\u5e74\u9928","stars":3,"review_nr":809,"currency_code":"TWD","location":{"lat":25.0435262441998,"lng":121.506067961454},"detail_type":"object","detail":{"type":"hotel","rating":3.9,"description":"","name":"\u611b\u5ba2\u767c\u6642\u5c1a\u65c5\u9928\u842c\u5e74\u9928","imgUrl":"\/api\/hotels\/photo\/366304","price":"6336.00","bookingUrl":"TODO","FBComments":[]}},{"price":"4922.80","address":"\u4e2d\u83ef\u8def\u4e00\u6bb521\u865f, \u4e2d\u6b63\u5340, \u53f0\u5317\u5e02","name":"Hotel Zoo","stars":3,"review_nr":73,"currency_code":"TWD","location":{"lat":25.046357,"lng":121.509936},"detail_type":"object","detail":{"type":"hotel","rating":3.9,"description":"","name":"Hotel Zoo","imgUrl":"\/api\/hotels\/photo\/2119610","price":"4922.80","bookingUrl":"TODO","FBComments":[]}},{"price":"5886.00","address":"\u6f22\u4e2d\u885752\u865f12F(\u897f\u9580\u753auniqlo\u65c1\u908a, \u7d55\u8272\u96fb\u5f71\u9662\u7684\u6a13\u4e0a12\u6a13), \u842c\u83ef\u5340, \u53f0\u5317\u5e02","name":"\u53f0\u5317\u65e5\u8a18\u65c5\u5e97- \u842c\u570b\u9928","stars":3,"review_nr":944,"currency_code":"TWD","location":{"lat":25.0436927021751,"lng":121.507158279419},"detail_type":"object","detail":{"type":"hotel","rating":3.9,"description":"","name":"\u53f0\u5317\u65e5\u8a18\u65c5\u5e97- \u842c\u570b\u9928","imgUrl":"\/api\/hotels\/photo\/724154","price":"5886.00","bookingUrl":"TODO","FBComments":[]}},{"price":"7791.00","address":"\u4fe1\u7fa9\u8def\u4e8c\u6bb573\u865f, \u4e2d\u6b63\u5340, \u53f0\u5317\u5e02","name":"\u65b0\u5c1a\u65c5\u5e97Hotel73","stars":3,"review_nr":1056,"currency_code":"TWD","location":{"lat":25.0346623344523,"lng":121.526549309492},"detail_type":"object","detail":{"type":"hotel","rating":3.9,"description":"","name":"\u65b0\u5c1a\u65c5\u5e97Hotel73","imgUrl":"\/api\/hotels\/photo\/267360","price":"7791.00","bookingUrl":"TODO","FBComments":[]}},{"price":"7800.00","address":"\u4e2d\u6b63\u5340\u8944\u967d\u8def4\u865f, \u4e2d\u6b63\u5340, \u53f0\u5317\u5e02","name":"Hotel MEZI \u65e5\u6689\u9152\u5e97 \u53f0\u5317\u7ad9\u524d","stars":3,"review_nr":79,"currency_code":"TWD","location":{"lat":25.0434097,"lng":121.5150145},"detail_type":"object","detail":{"type":"hotel","rating":3.9,"description":"","name":"Hotel MEZI \u65e5\u6689\u9152\u5e97 \u53f0\u5317\u7ad9\u524d","imgUrl":"\/api\/hotels\/photo\/1931261","price":"7800.00","bookingUrl":"TODO","FBComments":[]}},{"price":"8959.00","address":"\u4e2d\u83ef\u8def\u4e00\u6bb582\u865f, \u842c\u83ef\u5340, \u53f0\u5317\u5e02","name":"\u842c\u4e8b\u9054\u884c\u65c5","stars":3,"review_nr":131,"currency_code":"TWD","location":{"lat":25.0453682045392,"lng":121.50876224041},"detail_type":"object","detail":{"type":"hotel","rating":3.9,"description":"","name":"\u842c\u4e8b\u9054\u884c\u65c5","imgUrl":"\/api\/hotels\/photo\/244330","price":"8959.00","bookingUrl":"TODO","FBComments":[]}},{"price":"5610.00","address":"\u6797\u68ee\u5317\u8def85\u5df723\u865f, \u4e2d\u5c71\u5340, \u53f0\u5317\u5e02","name":"\u5bcc\u88d5\u81ea\u7531\u65c5\u5e97-\u6797\u68ee\u9928","stars":3,"review_nr":224,"currency_code":"TWD","location":{"lat":25.0496451879865,"lng":121.525732040373},"detail_type":"object","detail":{"type":"hotel","rating":3.9,"description":"","name":"\u5bcc\u88d5\u81ea\u7531\u65c5\u5e97-\u6797\u68ee\u9928","imgUrl":"\/api\/hotels\/photo\/1898089","price":"5610.00","bookingUrl":"TODO","FBComments":[]}},{"price":"5240.00","address":"\u6210\u90fd\u8def23\u53f7, \u842c\u83ef\u5340, \u53f0\u5317\u5e02","name":"\u660e\u65e5\u5927\u996d\u5e97","stars":3,"review_nr":2072,"currency_code":"TWD","location":{"lat":25.0425554373461,"lng":121.506916880608},"detail_type":"object","detail":{"type":"hotel","rating":3.9,"description":"","name":"\u660e\u65e5\u5927\u996d\u5e97","imgUrl":"\/api\/hotels\/photo\/775976","price":"5240.00","bookingUrl":"TODO","FBComments":[]}},{"price":"6055.40","address":"\u6797\u68ee\u5317\u8def107\u5df716\u53f7, \u4e2d\u5c71\u5340, \u53f0\u5317\u5e02","name":"\u53f0\u5317\u4fd0\u4ed5\u5546\u65c5","stars":3,"review_nr":1538,"currency_code":"TWD","location":{"lat":25.0501281495718,"lng":121.525608139881},"detail_type":"object","detail":{"type":"hotel","rating":3.9,"description":"","name":"\u53f0\u5317\u4fd0\u4ed5\u5546\u65c5","imgUrl":"\/api\/hotels\/photo\/1107074","price":"6055.40","bookingUrl":"TODO","FBComments":[]}},{"price":"6742.50","address":"\u4fe1\u7fa9\u8def\u4e09\u6bb5147\u5df75\u5f044\u865f, \u5927\u5b89\u5340, \u53f0\u5317\u5e02","name":"\u4f60\u597d\u5496\u5561\u65c5\u9928","stars":3,"review_nr":589,"currency_code":"TWD","location":{"lat":25.0338969,"lng":121.542248},"detail_type":"object","detail":{"type":"hotel","rating":3.9,"description":"","name":"\u4f60\u597d\u5496\u5561\u65c5\u9928","imgUrl":"\/api\/hotels\/photo\/1526630","price":"6742.50","bookingUrl":"TODO","FBComments":[]}},{"price":"7446.00","address":"\u91cd\u6176\u5357\u8def\u4e00\u6bb520\u865f, \u4e2d\u6b63\u5340, \u53f0\u5317\u5e02","name":"\u65c5\u6a02\u5e8f\u7cbe\u54c1\u65c5\u9928\u7ad9\u524d\u4e94\u9928","stars":3,"review_nr":130,"currency_code":"TWD","location":{"lat":25.0461247850032,"lng":121.513097341105},"detail_type":"object","detail":{"type":"hotel","rating":3.9,"description":"","name":"\u65c5\u6a02\u5e8f\u7cbe\u54c1\u65c5\u9928\u7ad9\u524d\u4e94\u9928","imgUrl":"\/api\/hotels\/photo\/1971958","price":"7446.00","bookingUrl":"TODO","FBComments":[]}},{"price":"6748.00","address":"\u4e2d\u83ef\u8def\u4e00\u6bb521\u865f, \u4e2d\u6b63\u5340, \u53f0\u5317\u5e02","name":"\u897f\u9580\u5137\u840a\u5546\u65c5","stars":3,"review_nr":549,"currency_code":"TWD","location":{"lat":25.0464434786217,"lng":121.510055065155},"detail_type":"object","detail":{"type":"hotel","rating":3.9,"description":"","name":"\u897f\u9580\u5137\u840a\u5546\u65c5","imgUrl":"\/api\/hotels\/photo\/236043","price":"6748.00","bookingUrl":"TODO","FBComments":[]}},{"price":"7740.00","address":"\u5ef6\u5e73\u5357\u8def68\u53f7, \u4e2d\u6b63\u5340, \u53f0\u5317\u5e02","name":"\u8def\u5f92\u884c\u65c5","stars":3,"review_nr":376,"currency_code":"TWD","location":{"lat":25.0450519,"lng":121.510338},"detail_type":"object","detail":{"type":"hotel","rating":3.9,"description":"","name":"\u8def\u5f92\u884c\u65c5","imgUrl":"\/api\/hotels\/photo\/1713436","price":"7740.00","bookingUrl":"TODO","FBComments":[]}},{"price":"5529.00","address":"\u91cd\u6176\u5357\u8def\u4e00\u6bb594\u865f, \u4e2d\u6b63\u5340, \u53f0\u5317\u5e02","name":"\u6558\u7f8e\u884c\u65c5","stars":3,"review_nr":500,"currency_code":"TWD","location":{"lat":25.042922,"lng":121.51303},"detail_type":"object","detail":{"type":"hotel","rating":3.9,"description":"","name":"\u6558\u7f8e\u884c\u65c5","imgUrl":"\/api\/hotels\/photo\/1471408","price":"5529.00","bookingUrl":"TODO","FBComments":[]}},{"price":"7436.00","address":"\u9577\u5b89\u897f\u8def77\u865f, \u5927\u540c\u5340, \u53f0\u5317\u5e02","name":"\u65b0\u9a5b\u65c5\u5e97\u53f0\u5317\u8eca\u7ad9\u4e09\u9928","stars":3,"review_nr":519,"currency_code":"TWD","location":{"lat":25.0510384984432,"lng":121.516710966825},"detail_type":"object","detail":{"type":"hotel","rating":3.9,"description":"","name":"\u65b0\u9a5b\u65c5\u5e97\u53f0\u5317\u8eca\u7ad9\u4e09\u9928","imgUrl":"\/api\/hotels\/photo\/341427","price":"7436.00","bookingUrl":"TODO","FBComments":[]}},{"price":"10700.00","address":"\u5e02\u6c11\u5927\u9053\u4e00\u6bb5209\u865f, \u5927\u540c\u5340, \u53f0\u5317\u5e02","name":"\u5927\u5e2b\u5546\u65c5","stars":3,"review_nr":370,"currency_code":"TWD","location":{"lat":25.048817553201,"lng":121.518573984449},"detail_type":"object","detail":{"type":"hotel","rating":3.9,"description":"","name":"\u5927\u5e2b\u5546\u65c5","imgUrl":"\/api\/hotels\/photo\/593989","price":"10700.00","bookingUrl":"TODO","FBComments":[]}},{"price":"5010.00","address":"\u5fe0\u5b5d\u897f\u8def\u4e00\u6bb541\u865f11\u6a13\u4e4b\u4e94, \u4e2d\u6b63\u5340, \u53f0\u5317\u5e02","name":"\u4f60\u597d\u53f0\u5317\u9752\u5e74\u65c5\u820d","stars":-1,"review_nr":2698,"currency_code":"TWD","location":{"lat":25.0461543097954,"lng":121.518351137638},"detail_type":"object","detail":{"type":"hotel","rating":3.9,"description":"","name":"\u4f60\u597d\u53f0\u5317\u9752\u5e74\u65c5\u820d","imgUrl":"\/api\/hotels\/photo\/321199","price":"5010.00","bookingUrl":"TODO","FBComments":[]}},{"price":"4884.00","address":"\u4e2d\u83ef\u8def\uff11\u6bb521\u865f, \u4e2d\u6b63\u5340, \u53f0\u5317\u5e02","name":"Taipei Play Suites","stars":3,"review_nr":7,"currency_code":"TWD","location":{"lat":25.0464618553991,"lng":121.509746108204},"detail_type":"object","detail":{"type":"hotel","rating":3.9,"description":"","name":"Taipei Play Suites","imgUrl":"\/api\/hotels\/photo\/2118598","price":"4884.00","bookingUrl":"TODO","FBComments":[]}},{"price":"5706.00","address":"\u91cd\u6176\u5357\u8def\u4e00\u6bb5111\u865f, \u4e2d\u6b63\u5340, \u53f0\u5317\u5e02","name":"\u6558\u7f8e\u7cbe\u54c1\u65c5\u5e97","stars":3,"review_nr":685,"currency_code":"TWD","location":{"lat":25.0427036711802,"lng":121.513295173645},"detail_type":"object","detail":{"type":"hotel","rating":3.9,"description":"","name":"\u6558\u7f8e\u7cbe\u54c1\u65c5\u5e97","imgUrl":"\/api\/hotels\/photo\/697514","price":"5706.00","bookingUrl":"TODO","FBComments":[]}},{"price":"4400.00","address":"\u9752\u5c9b\u897f\u8def11\u53f7, \u4e2d\u6b63\u5340, \u53f0\u5317\u5e02","name":"\u53f0\u6e7e\u9752\u65c5\u81a0\u56ca\u65c5\u5e97","stars":-1,"review_nr":192,"currency_code":"TWD","location":{"lat":25.0449795796231,"lng":121.517773457672},"detail_type":"object","detail":{"type":"hotel","rating":3.9,"description":"","name":"\u53f0\u6e7e\u9752\u65c5\u81a0\u56ca\u65c5\u5e97","imgUrl":"\/api\/hotels\/photo\/2037880","price":"4400.00","bookingUrl":"TODO","FBComments":[]}},{"price":"4300.00","address":"\u83ef\u9670\u8857103\u865f, \u5927\u540c\u5340, \u53f0\u5317\u5e02","name":"\u593e\u8173\u62d6\u7684\u5bb6","stars":2,"review_nr":893,"currency_code":"TWD","location":{"lat":25.0498247592843,"lng":121.517244726419},"detail_type":"object","detail":{"type":"hotel","rating":3.9,"description":"","name":"\u593e\u8173\u62d6\u7684\u5bb6","imgUrl":"\/api\/hotels\/photo\/847649","price":"4300.00","bookingUrl":"TODO","FBComments":[]}},{"price":"2635.00","address":"\u4e2d\u6b63\u5340\u958b\u5c01\u88571\u6bb537\u865f12\u6a13, \u4e2d\u6b63\u5340, \u53f0\u5317\u5e02","name":"\u6728\u85dd\u5c45\u81a0\u56ca\u65c5\u5e97","stars":-1,"review_nr":843,"currency_code":"TWD","location":{"lat":25.046127,"lng":121.5126571},"detail_type":"object","detail":{"type":"hotel","rating":3.9,"description":"","name":"\u6728\u85dd\u5c45\u81a0\u56ca\u65c5\u5e97","imgUrl":"\/api\/hotels\/photo\/1752463","price":"2635.00","bookingUrl":"TODO","FBComments":[]}},{"price":"2908.00","address":"\u958b\u5c01\u8857\uff11\u6bb533\u865f, \u4e2d\u6b63\u5340, \u53f0\u5317\u5e02","name":"\u4e0b\u4e00\u7ad9\u53f0\u5317\u9752\u5e74\u65c5\u5e97 - \u8eca\u7ad9\u9928","stars":-1,"review_nr":899,"currency_code":"TWD","location":{"lat":25.04614,"lng":121.512947},"detail_type":"object","detail":{"type":"hotel","rating":3.9,"description":"","name":"\u4e0b\u4e00\u7ad9\u53f0\u5317\u9752\u5e74\u65c5\u5e97 - \u8eca\u7ad9\u9928","imgUrl":"\/api\/hotels\/photo\/1540149","price":"2908.00","bookingUrl":"TODO","FBComments":[]}},{"price":"3230.00","address":"\u6f22\u4e2d\u885735\u865f, \u842c\u83ef\u5340, \u53f0\u5317\u5e02","name":"\u4e0b\u4e00\u7ad9\u53f0\u5317\u9752\u5e74\u65c5\u5e97-\u897f\u9580\u753a","stars":-1,"review_nr":1098,"currency_code":"TWD","location":{"lat":25.044913986934,"lng":121.507704414104},"detail_type":"object","detail":{"type":"hotel","rating":3.9,"description":"","name":"\u4e0b\u4e00\u7ad9\u53f0\u5317\u9752\u5e74\u65c5\u5e97-\u897f\u9580\u753a","imgUrl":"\/api\/hotels\/photo\/1309744","price":"3230.00","bookingUrl":"TODO","FBComments":[]}},{"price":"3080.00","address":"\u6f22\u4e2d\u885742\u865f8\u6a13, \u842c\u83ef\u5340, \u53f0\u5317\u5e02","name":"\u897f\u9580\u7aa9\u9752\u5e74\u65c5\u9928","stars":-1,"review_nr":1243,"currency_code":"TWD","location":{"lat":25.0442277201251,"lng":121.507361457672},"detail_type":"object","detail":{"type":"hotel","rating":3.9,"description":"","name":"\u897f\u9580\u7aa9\u9752\u5e74\u65c5\u9928","imgUrl":"\/api\/hotels\/photo\/1246970","price":"3080.00","bookingUrl":"TODO","FBComments":[]}},{"price":"6158.00","address":"\u91cd\u6176\u5357\u8def1\u6bb51\u865f3\u6a13, \u4e2d\u6b63\u5340, \u53f0\u5317\u5e02","name":"\u6b63\u65c5\u9928","stars":2,"review_nr":390,"currency_code":"TWD","location":{"lat":25.0467833524494,"lng":121.513344794512},"detail_type":"object","detail":{"type":"hotel","rating":3.9,"description":"","name":"\u6b63\u65c5\u9928","imgUrl":"\/api\/hotels\/photo\/1140855","price":"6158.00","bookingUrl":"TODO","FBComments":[]}},{"price":"2772.00","address":"\u91cd\u6176\u5357\u8def\u4e09\u6bb538\u865f, \u4e2d\u6b63\u5340, \u53f0\u5317\u5e02","name":"\u60a0\u9038\u884c\u65c5","stars":-1,"review_nr":562,"currency_code":"TWD","location":{"lat":25.0284095210204,"lng":121.515507996082},"detail_type":"object","detail":{"type":"hotel","rating":3.9,"description":"","name":"\u60a0\u9038\u884c\u65c5","imgUrl":"\/api\/hotels\/photo\/1671088","price":"2772.00","bookingUrl":"TODO","FBComments":[]}},{"price":"2998.00","address":"\u91cd\u6176\u5357\u8def\u4e00\u6bb5100\u865f, \u4e2d\u6b63\u5340, \u53f0\u5317\u5e02","name":" \u53f0\u5317\u5967\u65af\u91d1\u65c5\u5e97 - \u897f\u9580\u9928","stars":-1,"review_nr":325,"currency_code":"TWD","location":{"lat":25.042622,"lng":121.513157830688},"detail_type":"object","detail":{"type":"hotel","rating":3.9,"description":"","name":" \u53f0\u5317\u5967\u65af\u91d1\u65c5\u5e97 - \u897f\u9580\u9928","imgUrl":"\/api\/hotels\/photo\/1730622","price":"2998.00","bookingUrl":"TODO","FBComments":[]}},{"price":"3100.00","address":"\u9928\u524d\u8def34\u865f7\u6a13, \u4e2d\u6b63\u5340, \u53f0\u5317\u5e02","name":"\u5361\u592b\u4eba\u80cc\u5305\u5ba2\u68e7 \u53f0\u5317\u8eca\u7ad9\u9752\u5e74\u9928","stars":2,"review_nr":638,"currency_code":"TWD","location":{"lat":25.0446196576325,"lng":121.514883047221},"detail_type":"object","detail":{"type":"hotel","rating":3.9,"description":"","name":"\u5361\u592b\u4eba\u80cc\u5305\u5ba2\u68e7 \u53f0\u5317\u8eca\u7ad9\u9752\u5e74\u9928","imgUrl":"\/api\/hotels\/photo\/1994987","price":"3100.00","bookingUrl":"TODO","FBComments":[]}},{"price":"12686.00","address":"\u4e2d\u83ef\u8def\u4e00\u6bb5150\u865f, \u842c\u83ef\u5340, \u53f0\u5317\u5e02","name":"\u6c38\u5b89\u68e7","stars":4,"review_nr":1072,"currency_code":"TWD","location":{"lat":25.0428834955907,"lng":121.508158743382},"detail_type":"object","detail":{"type":"hotel","rating":3.9,"description":"","name":"\u6c38\u5b89\u68e7","imgUrl":"\/api\/hotels\/photo\/462938","price":"12686.00","bookingUrl":"TODO","FBComments":[]},"FBComments":[{"name":"Shubo","picUrl":"https:\/\/scontent-tpe1-1.xx.fbcdn.net\/v\/t31.0-8\/12240204_10201025484755823_6391494369021442065_o.jpg?oh=8f76c327d6675bea77c6be7dab0bba38&oe=59279BB6","content":"\u4fbf\u5b9c\u53c8\u8212\u9069\uff0c\u96e2\u6377\u904b\u7cfb\u7d71\u53c8\u8fd1\u3001\u53c8\u6709\u65e9\u9910","rating":3,"time":"2015-06-23 11:23"}]},{"price":"15246.00","address":"\u5fe0\u5b5d\u6771\u8def\u4e00\u6bb531\u865f, \u4e2d\u6b63\u5340, \u53f0\u5317\u5e02","name":"\u548c\u9038\u53f0\u5317\u5fe0\u5b5d\u9928","stars":4,"review_nr":284,"currency_code":"TWD","location":{"lat":25.0444751731335,"lng":121.525445580482},"detail_type":"object","detail":{"type":"hotel","rating":3.9,"description":"","name":"\u548c\u9038\u53f0\u5317\u5fe0\u5b5d\u9928","imgUrl":"\/api\/hotels\/photo\/730324","price":"15246.00","bookingUrl":"TODO","FBComments":[]}},{"price":"13500.00","address":"\u677e\u6c5f\u8def63\u865f, \u4e2d\u5c71\u5340, \u53f0\u5317\u5e02","name":"\u9577\u69ae\u6842\u51a0\u9152\u5e97\uff08\u53f0\u5317\uff09","stars":5,"review_nr":658,"currency_code":"TWD","location":{"lat":25.0488126933205,"lng":121.533038914204},"detail_type":"object","detail":{"type":"hotel","rating":3.9,"description":"","name":"\u9577\u69ae\u6842\u51a0\u9152\u5e97\uff08\u53f0\u5317\uff09","imgUrl":"\/api\/hotels\/photo\/74809","price":"13500.00","bookingUrl":"TODO","FBComments":[]}},{"price":"11067.00","address":"\u91cd\u6176\u5357\u8def\u4e00\u6bb521\u865f, \u4e2d\u6b63\u5340, \u53f0\u5317\u5e02","name":"\u6d1b\u7881\u9a5b\u5927\u98ef\u5e97","stars":4,"review_nr":895,"currency_code":"TWD","location":{"lat":25.045807,"lng":121.513372},"detail_type":"object","detail":{"type":"hotel","rating":3.9,"description":"","name":"\u6d1b\u7881\u9a5b\u5927\u98ef\u5e97","imgUrl":"\/api\/hotels\/photo\/1244387","price":"11067.00","bookingUrl":"TODO","FBComments":[]}},{"price":"17040.00","address":"\u627f\u5fb7\u8def\u4e00\u6bb53\u865f, \u5927\u540c\u5340, \u53f0\u5317\u5e02","name":"\u53f0\u5317\u541b\u54c1\u9152\u5e97","stars":5,"review_nr":547,"currency_code":"TWD","location":{"lat":25.0490362476256,"lng":121.517099887133},"detail_type":"object","detail":{"type":"hotel","rating":3.9,"description":"","name":"\u53f0\u5317\u541b\u54c1\u9152\u5e97","imgUrl":"\/api\/hotels\/photo\/304974","price":"17040.00","bookingUrl":"TODO","FBComments":[]}},{"price":"12300.00","address":"\u4e2d\u83ef\u8def\u4e00\u6bb541\u865f, \u4e2d\u6b63\u5340, \u53f0\u5317\u5e02","name":"\u6377\u7d72\u65c5\u897f\u9580\u753a\u9928","stars":4,"review_nr":600,"currency_code":"TWD","location":{"lat":25.0449368772573,"lng":121.50982439518},"detail_type":"object","detail":{"type":"hotel","rating":3.9,"description":"","name":"\u6377\u7d72\u65c5\u897f\u9580\u753a\u9928","imgUrl":"\/api\/hotels\/photo\/329800","price":"12300.00","bookingUrl":"TODO","FBComments":[]}},{"price":"6630.00","address":"\u958b\u5c01\u8857\u4e00\u6bb535\u865f, \u4e2d\u6b63\u5340, \u53f0\u5317\u5e02","name":"\u53f0\u5317\u897f\u9580\u4eab\u6a02\u6587\u65c5\u958b\u5c01\u9928","stars":3,"review_nr":599,"currency_code":"TWD","location":{"lat":25.0460707951388,"lng":121.512792151538},"detail_type":"object","detail":{"type":"hotel","rating":3.9,"description":"","name":"\u53f0\u5317\u897f\u9580\u4eab\u6a02\u6587\u65c5\u958b\u5c01\u9928","imgUrl":"\/api\/hotels\/photo\/1388434","price":"6630.00","bookingUrl":"TODO","FBComments":[]}},{"price":"7312.00","address":"\u4e2d\u83ef\u8def\u4e00\u6bb541\u865f13\u6a13, \u4e2d\u6b63\u5340, \u53f0\u5317\u5e02","name":"\u6d1b\u7881\u4e2d\u83ef\u5927\u98ef\u5e97","stars":3,"review_nr":2002,"currency_code":"TWD","location":{"lat":25.0449757575252,"lng":121.509371101856},"detail_type":"object","detail":{"type":"hotel","rating":3.9,"description":"","name":"\u6d1b\u7881\u4e2d\u83ef\u5927\u98ef\u5e97","imgUrl":"\/api\/hotels\/photo\/852930","price":"7312.00","bookingUrl":"TODO","FBComments":[]}},{"price":"6500.00","address":"\u8944\u967d\u8def8\u865f, \u4e2d\u6b63\u5340, \u53f0\u5317\u5e02","name":"\u53f0\u5317\u6a02\u5ba2\u5546\u65c5","stars":4,"review_nr":1591,"currency_code":"TWD","location":{"lat":25.0433670761435,"lng":121.513579487801},"detail_type":"object","detail":{"type":"hotel","rating":3.9,"description":"","name":"\u53f0\u5317\u6a02\u5ba2\u5546\u65c5","imgUrl":"\/api\/hotels\/photo\/379308","price":"6500.00","bookingUrl":"TODO","FBComments":[]}},{"price":"9072.00","address":"\u4e2d\u83ef\u8def\u4e00\u6bb5168\u865f, \u842c\u83ef\u5340, \u53f0\u5317\u5e02","name":"\u5bf6\u683c\u5229\u6642\u5c1a\u65c5\u9928","stars":3,"review_nr":470,"currency_code":"TWD","location":{"lat":25.0412687115376,"lng":121.507555246353},"detail_type":"object","detail":{"type":"hotel","rating":3.9,"description":"","name":"\u5bf6\u683c\u5229\u6642\u5c1a\u65c5\u9928","imgUrl":"\/api\/hotels\/photo\/345033","price":"9072.00","bookingUrl":"TODO","FBComments":[]}},{"price":"8330.00","address":"\u91cd\u6176\u5357\u8def1\u6bb560\u865f, \u4e2d\u6b63\u5340, \u53f0\u5317\u5e02","name":"\u4e30\u5c45\u65c5\u5e97 - \u5317\u8eca\u9928","stars":3,"review_nr":462,"currency_code":"TWD","location":{"lat":25.043826,"lng":121.513074},"detail_type":"object","detail":{"type":"hotel","rating":3.9,"description":"","name":"\u4e30\u5c45\u65c5\u5e97 - \u5317\u8eca\u9928","imgUrl":"\/api\/hotels\/photo\/1580975","price":"8330.00","bookingUrl":"TODO","FBComments":[]}},{"price":"8370.00","address":"\u4e2d\u83ef\u8def\u4e00\u6bb5178\u865f, \u842c\u83ef\u5340, \u53f0\u5317\u5e02","name":"\u5bcc\u5712\u570b\u969b\u5546\u52d9\u98ef\u5e97","stars":3,"review_nr":298,"currency_code":"TWD","location":{"lat":25.0391642356997,"lng":121.507073789835},"detail_type":"object","detail":{"type":"hotel","rating":3.9,"description":"","name":"\u5bcc\u5712\u570b\u969b\u5546\u52d9\u98ef\u5e97","imgUrl":"\/api\/hotels\/photo\/383016","price":"8370.00","bookingUrl":"TODO","FBComments":[]}},{"price":"11880.00","address":"\u4fe1\u7fa9\u8def\u4e09\u6bb5147\u5df718\u865f, \u5927\u5b89\u5340, \u53f0\u5317\u5e02","name":"\u53f8\u65c5","stars":3,"review_nr":50,"currency_code":"TWD","location":{"lat":25.036086445788,"lng":121.541738235474},"detail_type":"object","detail":{"type":"hotel","rating":3.9,"description":"","name":"\u53f8\u65c5","imgUrl":"\/api\/hotels\/photo\/1952681","price":"11880.00","bookingUrl":"TODO","FBComments":[]}},{"price":"9600.00","address":"\u4e2d\u5c71\u5317\u8def\u4e00\u6bb553\u5df722\u865f, \u4e2d\u5c71\u5340, \u53f0\u5317\u5e02","name":"\u67ef\u9054\u5927\u98ef\u5e97- \u5929\u6d25\u9928","stars":-1,"review_nr":20,"currency_code":"TWD","location":{"lat":25.0488227,"lng":121.5232075},"detail_type":"object","detail":{"type":"hotel","rating":3.9,"description":"","name":"\u67ef\u9054\u5927\u98ef\u5e97- \u5929\u6d25\u9928","imgUrl":"\/api\/hotels\/photo\/2108974","price":"9600.00","bookingUrl":"TODO","FBComments":[]}},{"price":"9531.00","address":"\u897f\u5be7\u5357\u8def72-1\u865f5\u6a13, \u842c\u83ef\u5340, \u53f0\u5317\u5e02","name":"\u7c73\u52d2\u98a8\u5c1a\u884c\u65c5","stars":4,"review_nr":24,"currency_code":"TWD","location":{"lat":25.0432347474111,"lng":121.505993063195},"detail_type":"object","detail":{"type":"hotel","rating":3.9,"description":"","name":"\u7c73\u52d2\u98a8\u5c1a\u884c\u65c5","imgUrl":"\/api\/hotels\/photo\/2063811","price":"9531.00","bookingUrl":"TODO","FBComments":[]}},{"price":"4980.00","address":"\u5357\u967d\u88578\u865f5\u6a13, \u4e2d\u6b63\u5340, \u53f0\u5317\u5e02","name":"\u6e05\u7ffc\u5c45\u91c7\u98a8\u9928","stars":3,"review_nr":721,"currency_code":"TWD","location":{"lat":25.04518,"lng":121.5160103},"detail_type":"object","detail":{"type":"hotel","rating":3.9,"description":"","name":"\u6e05\u7ffc\u5c45\u91c7\u98a8\u9928","imgUrl":"\/api\/hotels\/photo\/1561950","price":"4980.00","bookingUrl":"TODO","FBComments":[]}},{"price":"8330.00","address":"\u4fe1\u7fa9\u8def\u4e8c\u6bb5163\u865f3-12\u6a13, \u4e2d\u6b63\u5340, \u53f0\u5317\u5e02","name":"\u8b19\u5546\u65c5-\u6771\u9580\u9928","stars":3,"review_nr":431,"currency_code":"TWD","location":{"lat":25.0340790800965,"lng":121.528911776895},"detail_type":"object","detail":{"type":"hotel","rating":3.9,"description":"","name":"\u8b19\u5546\u65c5-\u6771\u9580\u9928","imgUrl":"\/api\/hotels\/photo\/604571","price":"8330.00","bookingUrl":"TODO","FBComments":[]}},{"price":"8076.00","address":"\u5fe0\u5b5d\u6771\u8def\u4e09\u6bb58\u865f, \u5927\u5b89\u5340, \u53f0\u5317\u5e02","name":"\u51f1\u7d71\u98ef\u5e97","stars":3,"review_nr":383,"currency_code":"TWD","location":{"lat":25.0418883828757,"lng":121.53355255723},"detail_type":"object","detail":{"type":"hotel","rating":3.9,"description":"","name":"\u51f1\u7d71\u98ef\u5e97","imgUrl":"\/api\/hotels\/photo\/242305","price":"8076.00","bookingUrl":"TODO","FBComments":[]}},{"price":"11790.00","address":"\u5fe0\u5b5d\u897f\u8def\u4e00\u6bb543\u865f, \u4e2d\u6b63\u5340, \u53f0\u5317\u5e02","name":"\u53f0\u5317\u5929\u6210\u5927\u98ef\u5e97","stars":4,"review_nr":1289,"currency_code":"TWD","location":{"lat":25.0461883295444,"lng":121.518208980724},"detail_type":"object","detail":{"type":"hotel","rating":3.9,"description":"","name":"\u53f0\u5317\u5929\u6210\u5927\u98ef\u5e97","imgUrl":"\/api\/hotels\/photo\/294122","price":"11790.00","bookingUrl":"TODO","FBComments":[]}},{"price":"7348.00","address":"\u4e2d\u83ef\u8def\u4e00\u6bb5144\u865f10\u6a13, \u842c\u83ef\u5340, \u53f0\u5317\u5e02","name":"Hotel Fun-\u8da3\u65c5\u9928","stars":4,"review_nr":186,"currency_code":"TWD","location":{"lat":25.0432082797948,"lng":121.508213542328},"detail_type":"object","detail":{"type":"hotel","rating":3.9,"description":"","name":"Hotel Fun-\u8da3\u65c5\u9928","imgUrl":"\/api\/hotels\/photo\/1519242","price":"7348.00","bookingUrl":"TODO","FBComments":[]}},{"price":"8526.00","address":"\u4e2d\u83ef\u8def\u4e00\u6bb5114\u5df717\u865f2\u6a13, \u842c\u83ef\u5340, \u53f0\u5317\u5e02","name":"\u4e30\u5c45\u65c5\u5e97- \u897f\u9580\u9928","stars":3,"review_nr":1372,"currency_code":"TWD","location":{"lat":25.0439575764436,"lng":121.507772505283},"detail_type":"object","detail":{"type":"hotel","rating":3.9,"description":"","name":"\u4e30\u5c45\u65c5\u5e97- \u897f\u9580\u9928","imgUrl":"\/api\/hotels\/photo\/393631","price":"8526.00","bookingUrl":"TODO","FBComments":[]}},{"price":"9310.00","address":"\u4fe1\u7fa9\u8def\u4e09\u6bb533\u865f, \u5927\u5b89\u5340, \u53f0\u5317\u5e02","name":"\u4e39\u8fea\u9152\u5e97\u5927\u5b89\u68ee\u6797\u516c\u5712\u5e97","stars":4,"review_nr":1167,"currency_code":"TWD","location":{"lat":25.0337631494959,"lng":121.534559726715},"detail_type":"object","detail":{"type":"hotel","rating":3.9,"description":"","name":"\u4e39\u8fea\u9152\u5e97\u5927\u5b89\u68ee\u6797\u516c\u5712\u5e97","imgUrl":"\/api\/hotels\/photo\/255650","price":"9310.00","bookingUrl":"TODO","FBComments":[]}},{"price":"5900.00","address":"\u9577\u5b89\u897f\u8def122\u865f, \u5927\u540c\u5340, \u53f0\u5317\u5e02","name":"\u593e\u8173\u62d6\u7684\u5bb6- \u9577\u5b89122","stars":2,"review_nr":389,"currency_code":"TWD","location":{"lat":25.0505395,"lng":121.518145},"detail_type":"object","detail":{"type":"hotel","rating":3.9,"description":"","name":"\u593e\u8173\u62d6\u7684\u5bb6- \u9577\u5b89122","imgUrl":"\/api\/hotels\/photo\/1843606","price":"5900.00","bookingUrl":"TODO","FBComments":[]}},{"price":"7204.00","address":"\u9928\u524d\u8def8\u865f6\u6a13, \u4e2d\u6b63\u5340, \u53f0\u5317\u5e02","name":"\u8a69\u66fc\u7cbe\u54c1\u65c5\u9986","stars":3,"review_nr":594,"currency_code":"TWD","location":{"lat":25.0457831,"lng":121.5148402},"detail_type":"object","detail":{"type":"hotel","rating":3.9,"description":"","name":"\u8a69\u66fc\u7cbe\u54c1\u65c5\u9986","imgUrl":"\/api\/hotels\/photo\/1308459","price":"7204.00","bookingUrl":"TODO","FBComments":[]}},{"price":"6340.00","address":"\u6f22\u4e2d\u885736\u865f, \u842c\u83ef\u5340, \u53f0\u5317\u5e02","name":"\u9577\u8679\u98ef\u5e97","stars":3,"review_nr":256,"currency_code":"TWD","location":{"lat":25.0444921833163,"lng":121.507425159216},"detail_type":"object","detail":{"type":"hotel","rating":3.9,"description":"","name":"\u9577\u8679\u98ef\u5e97","imgUrl":"\/api\/hotels\/photo\/580457","price":"6340.00","bookingUrl":"TODO","FBComments":[]}},{"price":"5600.00","address":"\u5ef6\u5e73\u5357\u8def101\u5df74\u865f, \u4e2d\u6b63\u5340, \u53f0\u5317\u5e02","name":"\u897f\u9580\u68e7","stars":-1,"review_nr":230,"currency_code":"TWD","location":{"lat":25.042594,"lng":121.510942},"detail_type":"object","detail":{"type":"hotel","rating":3.9,"description":"","name":"\u897f\u9580\u68e7","imgUrl":"\/api\/hotels\/photo\/1561965","price":"5600.00","bookingUrl":"TODO","FBComments":[]}},{"price":"13260.00","address":"\u4e2d\u5c71\u5317\u8def\u4e00\u6bb583\u5df715\u865f, \u4e2d\u5c71\u5340, \u53f0\u5317\u5e02","name":"\u5929\u95a3\u9152\u5e97\u53f0\u5317\u6797\u68ee","stars":4,"review_nr":148,"currency_code":"TWD","location":{"lat":25.0500738258574,"lng":121.524378061295},"detail_type":"object","detail":{"type":"hotel","rating":3.9,"description":"","name":"\u5929\u95a3\u9152\u5e97\u53f0\u5317\u6797\u68ee","imgUrl":"\/api\/hotels\/photo\/377268","price":"13260.00","bookingUrl":"TODO","FBComments":[]}},{"price":"5600.00","address":"\u61f7\u5be7\u885730\u865f, \u4e2d\u6b63\u5340, \u53f0\u5317\u5e02","name":"\u82b1\u83ef\u5927\u98ef\u5e97- \u672c\u9928","stars":3,"review_nr":161,"currency_code":"TWD","location":{"lat":25.0452425797482,"lng":121.514040828836},"detail_type":"object","detail":{"type":"hotel","rating":3.9,"description":"","name":"\u82b1\u83ef\u5927\u98ef\u5e97- \u672c\u9928","imgUrl":"\/api\/hotels\/photo\/1779151","price":"5600.00","bookingUrl":"TODO","FBComments":[]}},{"price":"9500.00","address":"\u897f\u5be7\u5357\u8def155\u865f3\u6a13, \u842c\u83ef\u5340, \u53f0\u5317\u5e02","name":"\u6771\u9a5b\u5546\u65c5 \u897f\u5be7\u9928","stars":3,"review_nr":220,"currency_code":"TWD","location":{"lat":25.0435309,"lng":121.506284},"detail_type":"object","detail":{"type":"hotel","rating":3.9,"description":"","name":"\u6771\u9a5b\u5546\u65c5 \u897f\u5be7\u9928","imgUrl":"\/api\/hotels\/photo\/1542928","price":"9500.00","bookingUrl":"TODO","FBComments":[]}},{"price":"10588.00","address":"\u5929\u6d25\u885770\u865f, \u4e2d\u5c71\u5340, \u53f0\u5317\u5e02","name":"\u4e39\u8fea\u65c5\u5e97\u5929\u6d25\u5e97","stars":3,"review_nr":431,"currency_code":"TWD","location":{"lat":25.0515840089257,"lng":121.523342728615},"detail_type":"object","detail":{"type":"hotel","rating":3.9,"description":"","name":"\u4e39\u8fea\u65c5\u5e97\u5929\u6d25\u5e97","imgUrl":"\/api\/hotels\/photo\/374491","price":"10588.00","bookingUrl":"TODO","FBComments":[]}},{"price":"10395.00","address":"\u6797\u68ee\u5317\u8def83\u865f4-12\u6a13, \u4e2d\u5c71\u5340, \u53f0\u5317\u5e02","name":"\u8001\u723a\u6703\u9928\u53f0\u5317\u6797\u68ee","stars":3,"review_nr":277,"currency_code":"TWD","location":{"lat":25.0496704592509,"lng":121.524839401245},"detail_type":"object","detail":{"type":"hotel","rating":3.9,"description":"","name":"\u8001\u723a\u6703\u9928\u53f0\u5317\u6797\u68ee","imgUrl":"\/api\/hotels\/photo\/585197","price":"10395.00","bookingUrl":"TODO","FBComments":[]}},{"price":"6112.00","address":"\u958b\u5c01\u8857\u4e00\u6bb541\u865f, \u4e2d\u6b63\u5340, \u53f0\u5317\u5e02","name":"\u798f\u6cf0\u6854\u5b50\u5546\u65c5-\u958b\u5c01\u5e97","stars":3,"review_nr":139,"currency_code":"TWD","location":{"lat":25.0461567397884,"lng":121.512576341629},"detail_type":"object","detail":{"type":"hotel","rating":3.9,"description":"","name":"\u798f\u6cf0\u6854\u5b50\u5546\u65c5-\u958b\u5c01\u5e97","imgUrl":"\/api\/hotels\/photo\/639813","price":"6112.00","bookingUrl":"TODO","FBComments":[]}},{"price":"9095.00","address":"\u9f8d\u6cc9\u8857, \u5927\u5b89\u5340, \u53f0\u5317\u5e02","name":"\u5927\u5b89\u6703\u9928","stars":-1,"review_nr":78,"currency_code":"TWD","location":{"lat":25.0261659886915,"lng":121.529337465763},"detail_type":"object","detail":{"type":"hotel","rating":3.9,"description":"","name":"\u5927\u5b89\u6703\u9928","imgUrl":"\/api\/hotels\/photo\/1640953","price":"9095.00","bookingUrl":"TODO","FBComments":[]}},{"price":"5700.00","address":"\u5fe0\u5b5d\u897f\u8def\u4e00\u6bb572\u865f4F, \u4e2d\u6b63\u5340, \u53f0\u5317\u5e02","name":"\u5168\u5bb6\u6b61\u65c5\u5e97","stars":2,"review_nr":471,"currency_code":"TWD","location":{"lat":25.0468612798748,"lng":121.513993006746},"detail_type":"object","detail":{"type":"hotel","rating":3.9,"description":"","name":"\u5168\u5bb6\u6b61\u65c5\u5e97","imgUrl":"\/api\/hotels\/photo\/1380314","price":"5700.00","bookingUrl":"TODO","FBComments":[]}},{"price":"7719.00","address":"\u4fe1\u7fa9\u8def\u4e8c\u6bb5255\u865f, \u4e2d\u6b63\u5340, \u53f0\u5317\u5e02","name":"\u65b9\u821f\u65c5\u5e97","stars":3,"review_nr":327,"currency_code":"TWD","location":{"lat":25.0337935274736,"lng":121.531464457512},"detail_type":"object","detail":{"type":"hotel","rating":3.9,"description":"","name":"\u65b9\u821f\u65c5\u5e97","imgUrl":"\/api\/hotels\/photo\/676788","price":"7719.00","bookingUrl":"TODO","FBComments":[]}},{"price":"4300.00","address":"\u91cd\u6176\u5357\u8def\u4e00\u6bb51\u865f, \u4e2d\u6b63\u5340, \u53f0\u5317\u5e02","name":"\u83ef\u7f8e\u5927\u98ef\u5e97","stars":2,"review_nr":942,"currency_code":"TWD","location":{"lat":25.0467652860263,"lng":121.513395387731},"detail_type":"object","detail":{"type":"hotel","rating":3.9,"description":"","name":"\u83ef\u7f8e\u5927\u98ef\u5e97","imgUrl":"\/api\/hotels\/photo\/1055331","price":"4300.00","bookingUrl":"TODO","FBComments":[]}},{"price":"3897.00","address":"\u6f22\u53e3\u88572\u6bb534\u5df717\u865f, \u842c\u83ef\u5340, \u53f0\u5317\u5e02","name":"\u53f0\u5317\u897f\u9580\u753a\u718a\u718a\u6c11\u5bbf","stars":2,"review_nr":1202,"currency_code":"TWD","location":{"lat":25.0449138,"lng":121.5072234},"detail_type":"object","detail":{"type":"hotel","rating":3.9,"description":"","name":"\u53f0\u5317\u897f\u9580\u753a\u718a\u718a\u6c11\u5bbf","imgUrl":"\/api\/hotels\/photo\/1245995","price":"3897.00","bookingUrl":"TODO","FBComments":[]}},{"price":"9240.00","address":"\u4e2d\u83ef\u8def\u4e00\u6bb5166\u865f\u4e4b2, \u842c\u83ef\u5340, \u53f0\u5317\u5e02","name":"\u798f\u6cf0\u6854\u5b50\u5546\u65c5- \u897f\u9580\u5e97","stars":3,"review_nr":300,"currency_code":"TWD","location":{"lat":25.041391,"lng":121.507625},"detail_type":"object","detail":{"type":"hotel","rating":3.9,"description":"","name":"\u798f\u6cf0\u6854\u5b50\u5546\u65c5- \u897f\u9580\u5e97","imgUrl":"\/api\/hotels\/photo\/546787","price":"9240.00","bookingUrl":"TODO","FBComments":[]}},{"price":"6760.00","address":"\u4e2d\u5c71\u5340\u65b0\u751f\u5317\u8def\uff11\u6bb566\u865f, \u4e2d\u5c71\u5340, \u53f0\u5317\u5e02","name":"\u4fcf\u884c\u65c5","stars":3,"review_nr":158,"currency_code":"TWD","location":{"lat":25.0469155,"lng":121.5305123},"detail_type":"object","detail":{"type":"hotel","rating":3.9,"description":"","name":"\u4fcf\u884c\u65c5","imgUrl":"\/api\/hotels\/photo\/1475796","price":"6760.00","bookingUrl":"TODO","FBComments":[]}},{"price":"6730.50","address":"\u83ef\u9670\u885750\u865f4\u6a13, \u5927\u540c\u5340, \u53f0\u5317\u5e02","name":"\u4fe1\u661f\u9752\u5e74\u65c5\u9928- \u53f0\u5317\u8eca\u7ad9","stars":-1,"review_nr":3768,"currency_code":"TWD","location":{"lat":25.050247685928,"lng":121.515278369958},"detail_type":"object","detail":{"type":"hotel","rating":3.9,"description":"","name":"\u4fe1\u661f\u9752\u5e74\u65c5\u9928- \u53f0\u5317\u8eca\u7ad9","imgUrl":"\/api\/hotels\/photo\/1119679","price":"6730.50","bookingUrl":"TODO","FBComments":[]}},{"price":"6340.00","address":"\u61f7\u5be7\u88571\u865f2\u6a13, \u4e2d\u6b63\u5340, \u53f0\u5317\u5e02","name":"\u61f7\u5be7\u65c5\u5e97","stars":-1,"review_nr":159,"currency_code":"TWD","location":{"lat":25.0464016750112,"lng":121.514326060783},"detail_type":"object","detail":{"type":"hotel","rating":3.9,"description":"","name":"\u61f7\u5be7\u65c5\u5e97","imgUrl":"\/api\/hotels\/photo\/2001990","price":"6340.00","bookingUrl":"TODO","FBComments":[]}},{"price":"5390.00","address":"\u897f\u5be7\u5357\u8def215\u865f, \u842c\u83ef\u5340, \u53f0\u5317\u5e02","name":"\u843d\u8173\u53f0\u5317","stars":3,"review_nr":389,"currency_code":"TWD","location":{"lat":25.0408616708176,"lng":121.506139039993},"detail_type":"object","detail":{"type":"hotel","rating":3.9,"description":"","name":"\u843d\u8173\u53f0\u5317","imgUrl":"\/api\/hotels\/photo\/414518","price":"5390.00","bookingUrl":"TODO","FBComments":[]}},{"price":"5004.00","address":"\u61f7\u5be7\u885792-2\u865f, \u4e2d\u6b63\u5340, \u53f0\u5317\u5e02","name":"\u53f0\u5317\u5929\u6674\u9752\u5e74\u65c5\u5e97","stars":-1,"review_nr":603,"currency_code":"TWD","location":{"lat":25.0426669,"lng":121.513943},"detail_type":"object","detail":{"type":"hotel","rating":3.9,"description":"","name":"\u53f0\u5317\u5929\u6674\u9752\u5e74\u65c5\u5e97","imgUrl":"\/api\/hotels\/photo\/1640965","price":"5004.00","bookingUrl":"TODO","FBComments":[]}},{"price":"6800.00","address":"\u5357\u660c\u8def\u4e00\u6bb531\u5df75\u865f, \u4e2d\u6b63\u5340, \u53f0\u5317\u5e02","name":"\u96f2\u9f0e\u5546\u52d9\u65c5\u5e97","stars":3,"review_nr":308,"currency_code":"TWD","location":{"lat":25.0320449588322,"lng":121.517180353403},"detail_type":"object","detail":{"type":"hotel","rating":3.9,"description":"","name":"\u96f2\u9f0e\u5546\u52d9\u65c5\u5e97","imgUrl":"\/api\/hotels\/photo\/651963","price":"6800.00","bookingUrl":"TODO","FBComments":[]}},{"price":"10080.00","address":"\u91d1\u5c71\u5317\u8def1\u865f, \u4e2d\u6b63\u5340, \u53f0\u5317\u5e02","name":"\u83ef\u5c71\u6587\u65c5","stars":-1,"review_nr":28,"currency_code":"TWD","location":{"lat":25.0442437204369,"lng":121.530369562566},"detail_type":"object","detail":{"type":"hotel","rating":3.9,"description":"","name":"\u83ef\u5c71\u6587\u65c5","imgUrl":"\/api\/hotels\/photo\/2039978","price":"10080.00","bookingUrl":"TODO","FBComments":[]}},{"price":"5616.00","address":"\u91cd\u6176\u5357\u8def\u4e00\u6bb586\u865f7-11\u6a13, \u4e2d\u6b63\u5340, \u53f0\u5317\u5e02","name":"\u8b19\u5546\u65c5-\u7e3d\u7d71\u5e9c\u9928","stars":3,"review_nr":372,"currency_code":"TWD","location":{"lat":25.0430390191926,"lng":121.513104736805},"detail_type":"object","detail":{"type":"hotel","rating":3.9,"description":"","name":"\u8b19\u5546\u65c5-\u7e3d\u7d71\u5e9c\u9928","imgUrl":"\/api\/hotels\/photo\/752439","price":"5616.00","bookingUrl":"TODO","FBComments":[]}},{"price":"5591.00","address":"\u5357\u967d\u885713\u865f4\u6a13, \u4e2d\u6b63\u5340, \u53f0\u5317\u5e02","name":"\u7d04\u514b\u8a2d\u8a08\u65c5\u5e97","stars":3,"review_nr":835,"currency_code":"TWD","location":{"lat":25.044981,"lng":121.516174},"detail_type":"object","detail":{"type":"hotel","rating":3.9,"description":"","name":"\u7d04\u514b\u8a2d\u8a08\u65c5\u5e97","imgUrl":"\/api\/hotels\/photo\/1121904","price":"5591.00","bookingUrl":"TODO","FBComments":[]}},{"price":"7240.00","address":"\u61f7\u5be7\u88575\u865f\u4e4b1, \u4e2d\u6b63\u5340, \u53f0\u5317\u5e02","name":"\u7687\u5bb6\u98ef\u5e97","stars":2,"review_nr":641,"currency_code":"TWD","location":{"lat":25.0465856327947,"lng":121.514292955399},"detail_type":"object","detail":{"type":"hotel","rating":3.9,"description":"","name":"\u7687\u5bb6\u98ef\u5e97","imgUrl":"\/api\/hotels\/photo\/582759","price":"7240.00","bookingUrl":"TODO","FBComments":[]}},{"price":"6740.00","address":"\u91cd\u6176\u5357\u8def\u4e00\u6bb518\u865f, \u4e2d\u6b63\u5340, \u53f0\u5317\u5e02","name":"\u548c\u660c\u5546\u65c5-\u7ad9\u524d\u9928","stars":3,"review_nr":580,"currency_code":"TWD","location":{"lat":25.0463754389592,"lng":121.513102054596},"detail_type":"object","detail":{"type":"hotel","rating":3.9,"description":"","name":"\u548c\u660c\u5546\u65c5-\u7ad9\u524d\u9928","imgUrl":"\/api\/hotels\/photo\/357580","price":"6740.00","bookingUrl":"TODO","FBComments":[]}},{"price":"6600.00","address":"\u6797\u68ee\u5317\u8def139\u865f, \u4e2d\u5c71\u5340, \u53f0\u5317\u5e02","name":"\u798f\u6cf0\u6854\u5b50\u5546\u65c5- \u6797\u68ee\u5e97","stars":3,"review_nr":80,"currency_code":"TWD","location":{"lat":25.051272983202,"lng":121.525257825851},"detail_type":"object","detail":{"type":"hotel","rating":3.9,"description":"","name":"\u798f\u6cf0\u6854\u5b50\u5546\u65c5- \u6797\u68ee\u5e97","imgUrl":"\/api\/hotels\/photo\/315766","price":"6600.00","bookingUrl":"TODO","FBComments":[]}},{"price":"6282.00","address":"\u6210\u90fd\u8def27\u5df76\u865f, \u842c\u83ef\u5340, \u53f0\u5317\u5e02","name":"\u749e\u9e97\u5546\u65c5","stars":3,"review_nr":146,"currency_code":"TWD","location":{"lat":25.0428980759367,"lng":121.506817638874},"detail_type":"object","detail":{"type":"hotel","rating":3.9,"description":"","name":"\u749e\u9e97\u5546\u65c5","imgUrl":"\/api\/hotels\/photo\/330802","price":"6282.00","bookingUrl":"TODO","FBComments":[]}},{"price":"8910.00","address":"\u4e2d\u5c71\u5317\u8def\u4e00\u6bb5105\u5df715\u865f, \u4e2d\u5c71\u5340, \u53f0\u5317\u5e02","name":"\u821e\u8863\u65b0\u5bbf","stars":3,"review_nr":343,"currency_code":"TWD","location":{"lat":25.0507687796686,"lng":121.523653864861},"detail_type":"object","detail":{"type":"hotel","rating":3.9,"description":"","name":"\u821e\u8863\u65b0\u5bbf","imgUrl":"\/api\/hotels\/photo\/354674","price":"8910.00","bookingUrl":"TODO","FBComments":[]}},{"price":"5364.00","address":"\u65b0\u751f\u5317\u8def\u4e00\u6bb5106\u865f\u4e03\u6a13, \u4e2d\u5c71\u5340, \u53f0\u5317\u5e02","name":"H106 \u597d\u99d0\u65c5\u9928","stars":3,"review_nr":642,"currency_code":"TWD","location":{"lat":25.0495599723347,"lng":121.528341309509},"detail_type":"object","detail":{"type":"hotel","rating":3.9,"description":"","name":"H106 \u597d\u99d0\u65c5\u9928","imgUrl":"\/api\/hotels\/photo\/1513886","price":"5364.00","bookingUrl":"TODO","FBComments":[]}},{"price":"7506.00","address":"\u6797\u68ee\u5317\u8def133\u5df78\u865f, \u4e2d\u5c71\u5340, \u53f0\u5317\u5e02","name":"\u73ab\u7470\u7cbe\u54c1\u65c5\u9928\u6797\u68ee\u6703\u9928","stars":3,"review_nr":273,"currency_code":"TWD","location":{"lat":25.0509844332409,"lng":121.525495201349},"detail_type":"object","detail":{"type":"hotel","rating":3.9,"description":"","name":"\u73ab\u7470\u7cbe\u54c1\u65c5\u9928\u6797\u68ee\u6703\u9928","imgUrl":"\/api\/hotels\/photo\/783560","price":"7506.00","bookingUrl":"TODO","FBComments":[]}},{"price":"4689.00","address":"\u5357\u967d\u88571\u865f3\u6a13, \u4e2d\u6b63\u5340, \u53f0\u5317\u5e02","name":"\u5357\u967d\u8857\u58f9\u865f\u65c5\u5e97 NYS LOFT HOTEL","stars":2,"review_nr":698,"currency_code":"TWD","location":{"lat":25.0457437,"lng":121.5161821},"detail_type":"object","detail":{"type":"hotel","rating":3.9,"description":"","name":"\u5357\u967d\u8857\u58f9\u865f\u65c5\u5e97 NYS LOFT HOTEL","imgUrl":"\/api\/hotels\/photo\/1908549","price":"4689.00","bookingUrl":"TODO","FBComments":[]}},{"price":"6366.00","address":"\u4e2d\u534e\u8def1\u6bb590\u53f76\u697c, \u842c\u83ef\u5340, \u53f0\u5317\u5e02","name":"\u4fea\u590f\u5546\u65c5-\u897f\u95e8\u753a\u4e2d\u534e\u9986","stars":3,"review_nr":151,"currency_code":"TWD","location":{"lat":25.0446161145767,"lng":121.508703231812},"detail_type":"object","detail":{"type":"hotel","rating":3.9,"description":"","name":"\u4fea\u590f\u5546\u65c5-\u897f\u95e8\u753a\u4e2d\u534e\u9986","imgUrl":"\/api\/hotels\/photo\/556866","price":"6366.00","bookingUrl":"TODO","FBComments":[]}},{"price":"5730.00","address":"\u4e2d\u83ef\u8def\u4e00\u6bb521\u865f6\u6a13, \u4e2d\u6b63\u5340, \u53f0\u5317\u5e02","name":"\u6085\u4f86\u7cbe\u54c1\u65c5\u9928","stars":3,"review_nr":231,"currency_code":"TWD","location":{"lat":25.0464037401468,"lng":121.509861775394},"detail_type":"object","detail":{"type":"hotel","rating":3.9,"description":"","name":"\u6085\u4f86\u7cbe\u54c1\u65c5\u9928","imgUrl":"\/api\/hotels\/photo\/1788931","price":"5730.00","bookingUrl":"TODO","FBComments":[]}},{"price":"4812.00","address":"\u91cd\u6176\u5357\u8def\u4e00\u6bb539\u865f, \u4e2d\u6b63\u5340, \u53f0\u5317\u5e02","name":"\u9251\u6cca\u5ba2\u65c5\u5e97","stars":-1,"review_nr":1361,"currency_code":"TWD","location":{"lat":25.0450469987461,"lng":121.513378728836},"detail_type":"object","detail":{"type":"hotel","rating":3.9,"description":"","name":"\u9251\u6cca\u5ba2\u65c5\u5e97","imgUrl":"\/api\/hotels\/photo\/1501908","price":"4812.00","bookingUrl":"TODO","FBComments":[]}},{"price":"7600.00","address":"\u4fe1\u7fa9\u8def\u4e09\u6bb573\u865f, \u5927\u5b89\u5340, \u53f0\u5317\u5e02","name":"\u591a\u90ce\u660e\u54e5\u5546\u52d9\u65c5\u9928","stars":3,"review_nr":163,"currency_code":"TWD","location":{"lat":25.0337631494959,"lng":121.536925435066},"detail_type":"object","detail":{"type":"hotel","rating":3.9,"description":"","name":"\u591a\u90ce\u660e\u54e5\u5546\u52d9\u65c5\u9928","imgUrl":"\/api\/hotels\/photo\/327938","price":"7600.00","bookingUrl":"TODO","FBComments":[]}},{"price":"5619.00","address":"\u958b\u5c01\u8857\u4e00\u6bb536\u865f, \u4e2d\u6b63\u5340, \u53f0\u5317\u5e02","name":"\u6e05\u7ffc\u5c45\u7ae5\u8a71\u9928","stars":2,"review_nr":272,"currency_code":"TWD","location":{"lat":25.0458992524967,"lng":121.512446585896},"detail_type":"object","detail":{"type":"hotel","rating":3.9,"description":"","name":"\u6e05\u7ffc\u5c45\u7ae5\u8a71\u9928","imgUrl":"\/api\/hotels\/photo\/1393967","price":"5619.00","bookingUrl":"TODO","FBComments":[]}},{"price":"9300.00","address":"\u6797\u68ee\u5317\u8def117\u865f3\u6a13, \u4e2d\u5c71\u5340, \u53f0\u5317\u5e02","name":"\u6377\u7d72\u65c5\u6797\u68ee\u9928","stars":4,"review_nr":180,"currency_code":"TWD","location":{"lat":25.050574387391,"lng":121.525123715401},"detail_type":"object","detail":{"type":"hotel","rating":3.9,"description":"","name":"\u6377\u7d72\u65c5\u6797\u68ee\u9928","imgUrl":"\/api\/hotels\/photo\/329801","price":"9300.00","bookingUrl":"TODO","FBComments":[]}},{"price":"5434.00","address":"2F., No.1, Section. 1, Chongqing S. Road, \u4e2d\u6b63\u5340, \u53f0\u5317\u5e02","name":"\u53f0\u5317\u65c5\u2027\u6668\u884c\u65c5","stars":-1,"review_nr":155,"currency_code":"TWD","location":{"lat":25.0469134398252,"lng":121.513412528836},"detail_type":"object","detail":{"type":"hotel","rating":3.9,"description":"","name":"\u53f0\u5317\u65c5\u2027\u6668\u884c\u65c5","imgUrl":"\/api\/hotels\/photo\/1675033","price":"5434.00","bookingUrl":"TODO","FBComments":[]}},{"price":"6707.00","address":"No. 3, Huayin Street, \u4e2d\u5c71\u5340, \u53f0\u5317\u5e02","name":"\u73ab\u7470\u7cbe\u54c1\u6703\u9928\u53f0\u5317\u7ad9","stars":3,"review_nr":441,"currency_code":"TWD","location":{"lat":25.049009518328,"lng":121.52072891593},"detail_type":"object","detail":{"type":"hotel","rating":3.9,"description":"","name":"\u73ab\u7470\u7cbe\u54c1\u6703\u9928\u53f0\u5317\u7ad9","imgUrl":"\/api\/hotels\/photo\/471439","price":"6707.00","bookingUrl":"TODO","FBComments":[]}},{"price":"8100.00","address":"\u4e2d\u83ef\u8def\u4e00\u6bb5144\u865f8\u6a13, \u842c\u83ef\u5340, \u53f0\u5317\u5e02","name":"\u982d\u7b49\u8259\u98ef\u5e97\u53f0\u5317\u2027\u4e2d\u83ef\u9928","stars":3,"review_nr":472,"currency_code":"TWD","location":{"lat":25.043201832752,"lng":121.508193612099},"detail_type":"object","detail":{"type":"hotel","rating":3.9,"description":"","name":"\u982d\u7b49\u8259\u98ef\u5e97\u53f0\u5317\u2027\u4e2d\u83ef\u9928","imgUrl":"\/api\/hotels\/photo\/358331","price":"8100.00","bookingUrl":"TODO","FBComments":[]}},{"price":"5580.00","address":"\u8861\u967d\u8def51\u865f3\u6a13, \u4e2d\u6b63\u5340, \u53f0\u5317\u5e02","name":"\u4e09\u6f3e\u65c5\u5e97","stars":2,"review_nr":226,"currency_code":"TWD","location":{"lat":25.0423830039231,"lng":121.512205917375},"detail_type":"object","detail":{"type":"hotel","rating":3.9,"description":"","name":"\u4e09\u6f3e\u65c5\u5e97","imgUrl":"\/api\/hotels\/photo\/629492","price":"5580.00","bookingUrl":"TODO","FBComments":[]}},{"price":"5128.00","address":"\u83ef\u9670\u885728\u865f, \u4e2d\u5c71\u5340, \u53f0\u5317\u5e02","name":"\u5c24\u5229\u897f\u65af\u9152\u5e97- \u53f0\u5317\u8eca\u7ad9","stars":3,"review_nr":831,"currency_code":"TWD","location":{"lat":25.0492002681881,"lng":121.519698947668},"detail_type":"object","detail":{"type":"hotel","rating":3.9,"description":"","name":"\u5c24\u5229\u897f\u65af\u9152\u5e97- \u53f0\u5317\u8eca\u7ad9","imgUrl":"\/api\/hotels\/photo\/374882","price":"5128.00","bookingUrl":"TODO","FBComments":[]}},{"price":"5840.00","address":"\u6f22\u53e3\u8857\u4e00\u6bb54\u865f, \u4e2d\u6b63\u5340, \u53f0\u5317\u5e02","name":"\u540d\u9091\u65c5\u5e97","stars":2,"review_nr":58,"currency_code":"TWD","location":{"lat":25.0450146377808,"lng":121.514802575111},"detail_type":"object","detail":{"type":"hotel","rating":3.9,"description":"","name":"\u540d\u9091\u65c5\u5e97","imgUrl":"\/api\/hotels\/photo\/396016","price":"5840.00","bookingUrl":"TODO","FBComments":[]}},{"price":"3920.00","address":"2 Floor, No. 6, Lane 107, Linsen North Road, \u4e2d\u5c71\u5340, \u53f0\u5317\u5e02","name":"\u6c27\u6c23\u65c5\u5e97-\u6797\u68eeM12\u9928","stars":-1,"review_nr":22,"currency_code":"TWD","location":{"lat":25.0501978606987,"lng":121.525303864418},"detail_type":"object","detail":{"type":"hotel","rating":3.9,"description":"","name":"\u6c27\u6c23\u65c5\u5e97-\u6797\u68eeM12\u9928","imgUrl":"\/api\/hotels\/photo\/2051425","price":"3920.00","bookingUrl":"TODO","FBComments":[]}},{"price":"7644.00","address":"\u61f7\u5be7\u88577\u865f, \u4e2d\u6b63\u5340, \u53f0\u5317\u5e02","name":"\u65b0\u9a5b\u65c5\u5e97\u53f0\u5317\u8eca\u7ad9\u4e00\u9928","stars":3,"review_nr":475,"currency_code":"TWD","location":{"lat":25.0463426341085,"lng":121.514229923487},"detail_type":"object","detail":{"type":"hotel","rating":3.9,"description":"","name":"\u65b0\u9a5b\u65c5\u5e97\u53f0\u5317\u8eca\u7ad9\u4e00\u9928","imgUrl":"\/api\/hotels\/photo\/324310","price":"7644.00","bookingUrl":"TODO","FBComments":[]}},{"price":"6597.00","address":"\u6f22\u53e3\u8857\u4e8c\u6bb523\u865f, \u842c\u83ef\u5340, \u53f0\u5317\u5e02","name":"\u6771\u9f8d\u5927\u98ef\u5e97","stars":3,"review_nr":108,"currency_code":"TWD","location":{"lat":25.045522,"lng":121.507964},"detail_type":"object","detail":{"type":"hotel","rating":3.9,"description":"","name":"\u6771\u9f8d\u5927\u98ef\u5e97","imgUrl":"\/api\/hotels\/photo\/1354569","price":"6597.00","bookingUrl":"TODO","FBComments":[]}},{"price":"11940.00","address":"\u4ec1\u611b\u8def3\u6bb58\u865f, \u5927\u5b89\u5340, \u53f0\u5317\u5e02","name":"\u677e\u54d6\u9152\u5e97","stars":-1,"review_nr":44,"currency_code":"TWD","location":{"lat":25.0378749849215,"lng":121.533594288955},"detail_type":"object","detail":{"type":"hotel","rating":3.9,"description":"","name":"\u677e\u54d6\u9152\u5e97","imgUrl":"\/api\/hotels\/photo\/1675098","price":"11940.00","bookingUrl":"TODO","FBComments":[]}},{"price":"7678.00","address":"\u5bf6\u6176\u8def63\u865f, \u4e2d\u6b63\u5340, \u53f0\u5317\u5e02","name":"\u65b0\u9a5b\u65c5\u5e97\u897f\u9580\u6377\u904b\u5e97","stars":3,"review_nr":434,"currency_code":"TWD","location":{"lat":25.0418069752511,"lng":121.509336233139},"detail_type":"object","detail":{"type":"hotel","rating":3.9,"description":"","name":"\u65b0\u9a5b\u65c5\u5e97\u897f\u9580\u6377\u904b\u5e97","imgUrl":"\/api\/hotels\/photo\/266427","price":"7678.00","bookingUrl":"TODO","FBComments":[]}},{"price":"5000.00","address":"\u5357\u4eac\u897f\u8def18\u5df730\u865f, \u5927\u540c\u5340, \u53f0\u5317\u5e02","name":"\u7d2b\u5712\u65c5\u5e97","stars":-1,"review_nr":100,"currency_code":"TWD","location":{"lat":25.0505715607579,"lng":121.520046728836},"detail_type":"object","detail":{"type":"hotel","rating":3.9,"description":"","name":"\u7d2b\u5712\u65c5\u5e97","imgUrl":"\/api\/hotels\/photo\/1760678","price":"5000.00","bookingUrl":"TODO","FBComments":[]}},{"price":"15885.00","address":"No. 266, Section 1, Jianguo South Road, \u5927\u5b89\u5340, \u53f0\u5317\u5e02","name":"\u798f\u5bb9\u5927\u98ef\u5e97\u53f0\u5317\u4e00\u9928","stars":5,"review_nr":76,"currency_code":"TWD","location":{"lat":25.036640518157,"lng":121.537196338177},"detail_type":"object","detail":{"type":"hotel","rating":3.9,"description":"","name":"\u798f\u5bb9\u5927\u98ef\u5e97\u53f0\u5317\u4e00\u9928","imgUrl":"\/api\/hotels\/photo\/175170","price":"15885.00","bookingUrl":"TODO","FBComments":[]}},{"price":"8972.00","address":"\u627f\u5fb7\u8def\u4e00\u6bb5\u4e00\u865f, \u5927\u540c\u5340, \u53f0\u5317\u5e02","name":"\u4eac\u7ad9\u7f8e\u9e97\u4f4f\u5bbf","stars":-1,"review_nr":511,"currency_code":"TWD","location":{"lat":25.0493618,"lng":121.5168299},"detail_type":"object","detail":{"type":"hotel","rating":3.9,"description":"","name":"\u4eac\u7ad9\u7f8e\u9e97\u4f4f\u5bbf","imgUrl":"\/api\/hotels\/photo\/1362661","price":"8972.00","bookingUrl":"TODO","FBComments":[]}},{"price":"7670.00","address":"\u83ef\u9670\u885746\u865f3\u6a13, \u5927\u540c\u5340, \u53f0\u5317\u5e02","name":"\u749e\u9e97\u5546\u52d9\u65c5\u9928\u53f0\u5317\u8eca\u7ad9\u5e97","stars":3,"review_nr":222,"currency_code":"TWD","location":{"lat":25.0502030289428,"lng":121.515296772122},"detail_type":"object","detail":{"type":"hotel","rating":3.9,"description":"","name":"\u749e\u9e97\u5546\u52d9\u65c5\u9928\u53f0\u5317\u8eca\u7ad9\u5e97","imgUrl":"\/api\/hotels\/photo\/1041630","price":"7670.00","bookingUrl":"TODO","FBComments":[]}},{"price":"5436.00","address":"\u4e2d\u83ef\u8def1\u6bb578\u865f4\u6a13, \u842c\u83ef\u5340, \u53f0\u5317\u5e02","name":"\u897f\u9580\u5927\u98ef\u5e97","stars":3,"review_nr":407,"currency_code":"TWD","location":{"lat":25.0457132652722,"lng":121.508895009756},"detail_type":"object","detail":{"type":"hotel","rating":3.9,"description":"","name":"\u897f\u9580\u5927\u98ef\u5e97","imgUrl":"\/api\/hotels\/photo\/393610","price":"5436.00","bookingUrl":"TODO","FBComments":[]}},{"price":"3000.00","address":"\u5fe0\u5b5d\u897f\u8def\u4e00\u6bb523\u53f7, \u4e2d\u6b63\u5340, \u53f0\u5317\u5e02","name":"\u7c73\u5c3c\u65c5\u5e97","stars":-1,"review_nr":1499,"currency_code":"TWD","location":{"lat":25.0460357399644,"lng":121.5189813},"detail_type":"object","detail":{"type":"hotel","rating":3.9,"description":"","name":"\u7c73\u5c3c\u65c5\u5e97","imgUrl":"\/api\/hotels\/photo\/1675043","price":"3000.00","bookingUrl":"TODO","FBComments":[]}},{"price":"3526.00","address":"\u6f22\u53e3\u8857\u4e00\u6bb545\u865f5\u6a13, \u4e2d\u6b63\u5340, \u53f0\u5317\u5e02","name":"\u54c1\u683c\u5b50\u65c5\u5e97 - 3S\u9986","stars":-1,"review_nr":1885,"currency_code":"TWD","location":{"lat":25.04527859794,"lng":121.51260048151},"detail_type":"object","detail":{"type":"hotel","rating":3.9,"description":"","name":"\u54c1\u683c\u5b50\u65c5\u5e97 - 3S\u9986","imgUrl":"\/api\/hotels\/photo\/1333617","price":"3526.00","bookingUrl":"TODO","FBComments":[]}},{"price":"6526.00","address":"\u6797\u68ee\u5317\u8def98\u865f, \u4e2d\u5c71\u5340, \u53f0\u5317\u5e02","name":"\u4e9e\u58eb\u90fd\u98ef\u5e97","stars":3,"review_nr":101,"currency_code":"TWD","location":{"lat":25.050150368166,"lng":121.524754911661},"detail_type":"object","detail":{"type":"hotel","rating":3.9,"description":"","name":"\u4e9e\u58eb\u90fd\u98ef\u5e97","imgUrl":"\/api\/hotels\/photo\/280053","price":"6526.00","bookingUrl":"TODO","FBComments":[]}},{"price":"12500.00","address":"\u842c\u83ef\u5340\u7a0b\u90fd\u8def67\u865f11\u6a13, \u842c\u83ef\u5340, \u53f0\u5317\u5e02","name":"\u6642\u5c1a\u540d\u5bb6\u842c\u83ef\u9928","stars":-1,"review_nr":14,"currency_code":"TWD","location":{"lat":25.0429491,"lng":121.5056906},"detail_type":"object","detail":{"type":"hotel","rating":3.9,"description":"","name":"\u6642\u5c1a\u540d\u5bb6\u842c\u83ef\u9928","imgUrl":"\/api\/hotels\/photo\/2003370","price":"12500.00","bookingUrl":"TODO","FBComments":[]}},{"price":"4024.00","address":"\u91cd\u6176\u5357\u8def\u4e00\u6bb537\u865f, \u4e2d\u6b63\u5340, \u53f0\u5317\u5e02","name":"\u6085\u6a02\u570b\u969b\u9752\u5e74\u5546\u65c5","stars":-1,"review_nr":1072,"currency_code":"TWD","location":{"lat":25.045347,"lng":121.513369},"detail_type":"object","detail":{"type":"hotel","rating":3.9,"description":"","name":"\u6085\u6a02\u570b\u969b\u9752\u5e74\u5546\u65c5","imgUrl":"\/api\/hotels\/photo\/1491159","price":"4024.00","bookingUrl":"TODO","FBComments":[]}},{"price":"7005.00","address":"\u91cd\u6176\u5357\u8def\u4e00\u6bb51\u865f5\u6a13, \u4e2d\u6b63\u5340, \u53f0\u5317\u5e02","name":"\u6c27\u6c23\u65c5\u5e97\u53f0\u5317\u8eca\u7ad9\u9928","stars":3,"review_nr":39,"currency_code":"TWD","location":{"lat":25.0469332796472,"lng":121.51337627791},"detail_type":"object","detail":{"type":"hotel","rating":3.9,"description":"","name":"\u6c27\u6c23\u65c5\u5e97\u53f0\u5317\u8eca\u7ad9\u9928","imgUrl":"\/api\/hotels\/photo\/2005486","price":"7005.00","bookingUrl":"TODO","FBComments":[]}},{"price":"6540.00","address":"\u7d39\u8208\u5317\u885731\u5df726\u865f, \u4e2d\u6b63\u5340, \u53f0\u5317\u5e02","name":"\u53f0\u5317\u7fa4\u6765\u5546\u65c5","stars":2,"review_nr":230,"currency_code":"TWD","location":{"lat":25.0451069783384,"lng":121.526204645634},"detail_type":"object","detail":{"type":"hotel","rating":3.9,"description":"","name":"\u53f0\u5317\u7fa4\u6765\u5546\u65c5","imgUrl":"\/api\/hotels\/photo\/327939","price":"6540.00","bookingUrl":"TODO","FBComments":[]}},{"price":"5160.00","address":"\u897f\u5be7\u5357\u8def112\u865f, \u842c\u83ef\u5340, \u53f0\u5317\u5e02","name":"\u5167\u6c5f\u5546\u65c5","stars":3,"review_nr":89,"currency_code":"TWD","location":{"lat":25.0415710963897,"lng":121.505914387732},"detail_type":"object","detail":{"type":"hotel","rating":3.9,"description":"","name":"\u5167\u6c5f\u5546\u65c5","imgUrl":"\/api\/hotels\/photo\/1413132","price":"5160.00","bookingUrl":"TODO","FBComments":[]}},{"price":"10800.00","address":"\u5317\u5e73\u6771\u8def12\u865f, \u4e2d\u6b63\u5340, \u53f0\u5317\u5e02","name":"\u5bb6\u7f8e\u98ef\u5e97","stars":3,"review_nr":42,"currency_code":"TWD","location":{"lat":25.0460801949864,"lng":121.524439752102},"detail_type":"object","detail":{"type":"hotel","rating":3.9,"description":"","name":"\u5bb6\u7f8e\u98ef\u5e97","imgUrl":"\/api\/hotels\/photo\/352602","price":"10800.00","bookingUrl":"TODO","FBComments":[]}},{"price":"7640.00","address":"\u9928\u524d\u8def22\u865f, \u4e2d\u6b63\u5340, \u53f0\u5317\u5e02","name":"\u798f\u6cf0\u6854\u5b50\u5546\u65c5- \u9928\u524d\u5e97","stars":-1,"review_nr":155,"currency_code":"TWD","location":{"lat":25.0449823143965,"lng":121.514755258266},"detail_type":"object","detail":{"type":"hotel","rating":3.9,"description":"","name":"\u798f\u6cf0\u6854\u5b50\u5546\u65c5- \u9928\u524d\u5e97","imgUrl":"\/api\/hotels\/photo\/1166204","price":"7640.00","bookingUrl":"TODO","FBComments":[]}},{"price":"5726.00","address":"\u65b0\u751f\u5317\u8def\u4e00\u6bb5122\u865f, \u4e2d\u5c71\u5340, \u53f0\u5317\u5e02","name":"\u53f0\u5317\u65b0\u6708\u5546\u65c5","stars":3,"review_nr":151,"currency_code":"TWD","location":{"lat":25.0508246673914,"lng":121.527787148952},"detail_type":"object","detail":{"type":"hotel","rating":3.9,"description":"","name":"\u53f0\u5317\u65b0\u6708\u5546\u65c5","imgUrl":"\/api\/hotels\/photo\/340512","price":"5726.00","bookingUrl":"TODO","FBComments":[]}},{"price":"3394.00","address":"\u8861\u967d\u8def51\u865f2F-2, \u4e2d\u6b63\u5340, \u53f0\u5317\u5e02","name":"\u5929\u4f7f\u9752\u65c5\u53f0\u5317\u897f\u9580","stars":-1,"review_nr":910,"currency_code":"TWD","location":{"lat":25.0423932797303,"lng":121.512222457672},"detail_type":"object","detail":{"type":"hotel","rating":3.9,"description":"","name":"\u5929\u4f7f\u9752\u65c5\u53f0\u5317\u897f\u9580","imgUrl":"\/api\/hotels\/photo\/1519228","price":"3394.00","bookingUrl":"TODO","FBComments":[]}},{"price":"4200.00","address":"\u6c49\u4e2d\u8857147\u5df76\u53f7, \u842c\u83ef\u5340, \u53f0\u5317\u5e02","name":"\u94f6\u6cb3\u8ff7\u4f60\u65c5\u5e97","stars":2,"review_nr":555,"currency_code":"TWD","location":{"lat":25.0414521831817,"lng":121.507512331009},"detail_type":"object","detail":{"type":"hotel","rating":3.9,"description":"","name":"\u94f6\u6cb3\u8ff7\u4f60\u65c5\u5e97","imgUrl":"\/api\/hotels\/photo\/789096","price":"4200.00","bookingUrl":"TODO","FBComments":[]}},{"price":"3280.00","address":"\u516c\u5712\u8def13\u865f10\u6a13, \u4e2d\u6b63\u5340, \u53f0\u5317\u5e02","name":"\u54c1\u683c\u5b50\u65c5\u5e97\u5317\u8eca\u9928","stars":-1,"review_nr":2046,"currency_code":"TWD","location":{"lat":25.0455808301057,"lng":121.517390906811},"detail_type":"object","detail":{"type":"hotel","rating":3.9,"description":"","name":"\u54c1\u683c\u5b50\u65c5\u5e97\u5317\u8eca\u9928","imgUrl":"\/api\/hotels\/photo\/505264","price":"3280.00","bookingUrl":"TODO","FBComments":[]}},{"price":"4127.50","address":"\u91cd\u6176\u5357\u8def\u4e00\u6bb57\u865f, \u4e2d\u6b63\u5340, \u53f0\u5317\u5e02","name":"\u749e\u90b8\u57ce\u5e02\u81a0\u56ca\u884c\u65c5","stars":2,"review_nr":1001,"currency_code":"TWD","location":{"lat":25.0462150597537,"lng":121.513335299387},"detail_type":"object","detail":{"type":"hotel","rating":3.9,"description":"","name":"\u749e\u90b8\u57ce\u5e02\u81a0\u56ca\u884c\u65c5","imgUrl":"\/api\/hotels\/photo\/1339707","price":"4127.50","bookingUrl":"TODO","FBComments":[]}},{"price":"5100.00","address":"\u5fe0\u5b5d\u897f\u8def\u4e00\u6bb550\u865f22\u6a13\u4e4b2, \u4e2d\u6b63\u5340, \u53f0\u5317\u5e02","name":"\u963f\u7f85\u570b\u969b\u65c5\u9928","stars":-1,"review_nr":1476,"currency_code":"TWD","location":{"lat":25.0462818843616,"lng":121.515892893076},"detail_type":"object","detail":{"type":"hotel","rating":3.9,"description":"","name":"\u963f\u7f85\u570b\u969b\u65c5\u9928","imgUrl":"\/api\/hotels\/photo\/424967","price":"5100.00","bookingUrl":"TODO","FBComments":[]}},{"price":"4539.00","address":"\u4ec1\u611b\u8def\uff11\u6bb555\u865f, \u4e2d\u6b63\u5340, \u53f0\u5317\u5e02","name":"\u767e\u82b1\u5546\u52d9\u65c5\u9928","stars":2,"review_nr":177,"currency_code":"TWD","location":{"lat":25.0386005,"lng":121.524787},"detail_type":"object","detail":{"type":"hotel","rating":3.9,"description":"","name":"\u767e\u82b1\u5546\u52d9\u65c5\u9928","imgUrl":"\/api\/hotels\/photo\/1513900","price":"4539.00","bookingUrl":"TODO","FBComments":[]}},{"price":"5570.00","address":"\u912d\u5dde\u8def21\u5df712\u865f, \u5927\u540c\u5340, \u53f0\u5317\u5e02","name":"\u6885\u6a13\u9a5b\u7ad9","stars":3,"review_nr":732,"currency_code":"TWD","location":{"lat":25.0496898986359,"lng":121.514244675636},"detail_type":"object","detail":{"type":"hotel","rating":3.9,"description":"","name":"\u6885\u6a13\u9a5b\u7ad9","imgUrl":"\/api\/hotels\/photo\/890872","price":"5570.00","bookingUrl":"TODO","FBComments":[]}},{"price":"3200.00","address":"\u8861\u967d\u8def51\u865fB1, \u4e2d\u6b63\u5340, \u53f0\u5317\u5e02","name":"\u592a\u7a7a\u8259\u65c5\u820d\u8861\u967d\u5e97","stars":-1,"review_nr":3484,"currency_code":"TWD","location":{"lat":25.0423846,"lng":121.5121864},"detail_type":"object","detail":{"type":"hotel","rating":3.9,"description":"","name":"\u592a\u7a7a\u8259\u65c5\u820d\u8861\u967d\u5e97","imgUrl":"\/api\/hotels\/photo\/1181809","price":"3200.00","bookingUrl":"TODO","FBComments":[]}},{"price":"8850.00","address":"\u5e02\u6c11\u5927\u9053\uff11\u6bb5205\u865f, \u5927\u540c\u5340, \u53f0\u5317\u5e02","name":"\u53f0\u5317\u4eac\u7ad9\u8c6a\u7f8e\u9152\u5e97\u5f0f\u516c\u5bd3","stars":-1,"review_nr":24,"currency_code":"TWD","location":{"lat":25.0490989907379,"lng":121.517681101852},"detail_type":"object","detail":{"type":"hotel","rating":3.9,"description":"","name":"\u53f0\u5317\u4eac\u7ad9\u8c6a\u7f8e\u9152\u5e97\u5f0f\u516c\u5bd3","imgUrl":"\/api\/hotels\/photo\/1769417","price":"8850.00","bookingUrl":"TODO","FBComments":[]}},{"price":"5770.00","address":"\u81e8\u6c82\u885776\u865f2\u6a13, \u4e2d\u6b63\u5340, \u53f0\u5317\u5e02","name":"\u6771\u9580\u65c5\u5e97","stars":2,"review_nr":414,"currency_code":"TWD","location":{"lat":25.0345140908997,"lng":121.527838110924},"detail_type":"object","detail":{"type":"hotel","rating":3.9,"description":"","name":"\u6771\u9580\u65c5\u5e97","imgUrl":"\/api\/hotels\/photo\/881059","price":"5770.00","bookingUrl":"TODO","FBComments":[]}},{"price":"2520.00","address":"7F, No. 37,Section 1, Kaifeng Street, \u4e2d\u6b63\u5340, \u53f0\u5317\u5e02","name":"\u53f0\u5317\u771f\u5fc34U\u9752\u5e74\u65c5\u9928","stars":-1,"review_nr":86,"currency_code":"TWD","location":{"lat":25.046127,"lng":121.5126571},"detail_type":"object","detail":{"type":"hotel","rating":3.9,"description":"","name":"\u53f0\u5317\u771f\u5fc34U\u9752\u5e74\u65c5\u9928","imgUrl":"\/api\/hotels\/photo\/1954456","price":"2520.00","bookingUrl":"TODO","FBComments":[]}},{"price":"5960.00","address":"\u6f22\u4e2d\u885742\u865f9\u6a13, \u842c\u83ef\u5340, \u53f0\u5317\u5e02","name":"\u5c0f\u738b\u5b50\u751c\u871c\u65c5\u5e97","stars":-1,"review_nr":14,"currency_code":"TWD","location":{"lat":25.0440453614821,"lng":121.507243774831},"detail_type":"object","detail":{"type":"hotel","rating":3.9,"description":"","name":"\u5c0f\u738b\u5b50\u751c\u871c\u65c5\u5e97","imgUrl":"\/api\/hotels\/photo\/2011286","price":"5960.00","bookingUrl":"TODO","FBComments":[]}},{"price":"5400.00","address":"\u6f22\u4e2d\u885735\u865f3\u6a13\u4e4b\u4e00, \u842c\u83ef\u5340, \u53f0\u5317\u5e02","name":"\u53f0\u5317\u897f\u9580\u7f8e\u68e7","stars":-1,"review_nr":0,"currency_code":"TWD","location":{"lat":25.0442543442966,"lng":121.507464051247},"detail_type":"object","detail":{"type":"hotel","rating":3.9,"description":"","name":"\u53f0\u5317\u897f\u9580\u7f8e\u68e7","imgUrl":"\/api\/hotels\/photo\/2224408","price":"5400.00","bookingUrl":"TODO","FBComments":[]}},{"price":"2950.00","address":"\u592a\u539f\u8def28\u5df711\u53f7, \u5927\u540c\u5340, \u53f0\u5317\u5e02","name":"\u5609\u8363\u9752\u5e74\u65c5\u820d","stars":-1,"review_nr":411,"currency_code":"TWD","location":{"lat":25.0500629962931,"lng":121.51489929652},"detail_type":"object","detail":{"type":"hotel","rating":3.9,"description":"","name":"\u5609\u8363\u9752\u5e74\u65c5\u820d","imgUrl":"\/api\/hotels\/photo\/1696868","price":"2950.00","bookingUrl":"TODO","FBComments":[]}},{"price":"5848.00","address":"\u53f0\u5317\u5e02\u4e2d\u6b63\u5340\u91cd\u6176\u5357\u8def\u4e00\u6bb563\u865f2F, \u4e2d\u6b63\u5340, \u53f0\u5317\u5e02","name":"\u68e7\u7559\u53f0\u5317","stars":-1,"review_nr":258,"currency_code":"TWD","location":{"lat":25.044871683988,"lng":121.513360542328},"detail_type":"object","detail":{"type":"hotel","rating":3.9,"description":"","name":"\u68e7\u7559\u53f0\u5317","imgUrl":"\/api\/hotels\/photo\/1754595","price":"5848.00","bookingUrl":"TODO","FBComments":[]}},{"price":"5540.00","address":"\u5fe0\u5b5d\u6771\u8def3\u6bb5219\u865f, \u5927\u5b89\u5340, \u53f0\u5317\u5e02","name":"\u6700\u611b\u5546\u52d9\u98ef\u5e97","stars":2,"review_nr":55,"currency_code":"TWD","location":{"lat":25.0418069752512,"lng":121.539812564915},"detail_type":"object","detail":{"type":"hotel","rating":3.9,"description":"","name":"\u6700\u611b\u5546\u52d9\u98ef\u5e97","imgUrl":"\/api\/hotels\/photo\/604584","price":"5540.00","bookingUrl":"TODO","FBComments":[]}},{"price":"3000.00","address":"\u8a31\u660c\u885740\u865f6\u6a13, \u4e2d\u6b63\u5340, \u53f0\u5317\u5e02","name":"\u9019\u88e1\u90a3\u88e1\u9752\u5e74\u65c5\u9928\u7ad9\u524d\u5e97","stars":-1,"review_nr":708,"currency_code":"TWD","location":{"lat":25.0455091,"lng":121.5156647},"detail_type":"object","detail":{"type":"hotel","rating":3.9,"description":"","name":"\u9019\u88e1\u90a3\u88e1\u9752\u5e74\u65c5\u9928\u7ad9\u524d\u5e97","imgUrl":"\/api\/hotels\/photo\/1448459","price":"3000.00","bookingUrl":"TODO","FBComments":[]}},{"price":"2552.00","address":"\u61f7\u5be7\u885784\u865f, \u4e2d\u6b63\u5340, \u53f0\u5317\u5e02","name":"\u8c9d\u6bbc\u7aa9\u9752\u5e74\u65c5\u820d- \u53f0\u5317","stars":-1,"review_nr":1722,"currency_code":"TWD","location":{"lat":25.0430220088083,"lng":121.513957679272},"detail_type":"object","detail":{"type":"hotel","rating":3.9,"description":"","name":"\u8c9d\u6bbc\u7aa9\u9752\u5e74\u65c5\u820d- \u53f0\u5317","imgUrl":"\/api\/hotels\/photo\/753196","price":"2552.00","bookingUrl":"TODO","FBComments":[]}},{"price":"2530.00","address":"\u6606\u660e\u8857316\u865f, \u842c\u83ef\u5340, \u53f0\u5317\u5e02","name":"\u897f\u9580\u5927\u53ef\u5c45\u9752\u5e74\u65c5\u9928","stars":-1,"review_nr":632,"currency_code":"TWD","location":{"lat":25.035814,"lng":121.5032759},"detail_type":"object","detail":{"type":"hotel","rating":3.9,"description":"","name":"\u897f\u9580\u5927\u53ef\u5c45\u9752\u5e74\u65c5\u9928","imgUrl":"\/api\/hotels\/photo\/1557736","price":"2530.00","bookingUrl":"TODO","FBComments":[]}},{"price":"2944.00","address":"\u91cd\u6176\u5357\u8def\u4e00\u6bb5 49\u865f9\u6a13, \u4e2d\u6b63\u5340, \u53f0\u5317\u5e02","name":"\u6795\u982d\u65c5\u5bbf","stars":-1,"review_nr":732,"currency_code":"TWD","location":{"lat":25.0449607724234,"lng":121.513137146612},"detail_type":"object","detail":{"type":"hotel","rating":3.9,"description":"","name":"\u6795\u982d\u65c5\u5bbf","imgUrl":"\/api\/hotels\/photo\/1930793","price":"2944.00","bookingUrl":"TODO","FBComments":[]}},{"price":"4860.00","address":"\u6210\u90fd\u8def27\u5df710\u865f5\u6a13, \u842c\u83ef\u5340, \u53f0\u5317\u5e02","name":"\u897f\u9580\u753a\u53e4\u5948\u5821\u65c5\u5e97","stars":3,"review_nr":133,"currency_code":"TWD","location":{"lat":25.0431722671094,"lng":121.506803110187},"detail_type":"object","detail":{"type":"hotel","rating":3.9,"description":"","name":"\u897f\u9580\u753a\u53e4\u5948\u5821\u65c5\u5e97","imgUrl":"\/api\/hotels\/photo\/628537","price":"4860.00","bookingUrl":"TODO","FBComments":[]}},{"price":"4240.00","address":"\u9577\u6c99\u8857\uff12\u6bb511\u865f2\u6a13, \u842c\u83ef\u5340, \u53f0\u5317\u5e02","name":"406 Inn -\u5973\u751f\u5bbf\u820d","stars":-1,"review_nr":215,"currency_code":"TWD","location":{"lat":25.0407719,"lng":121.506922},"detail_type":"object","detail":{"type":"hotel","rating":3.9,"description":"","name":"406 Inn -\u5973\u751f\u5bbf\u820d","imgUrl":"\/api\/hotels\/photo\/1467452","price":"4240.00","bookingUrl":"TODO","FBComments":[]}},{"price":"5600.00","address":"\u6f22\u53e3\u8857\u4e00\u6bb536\u865f, \u4e2d\u6b63\u5340, \u53f0\u5317\u5e02","name":"\u82b1\u83ef\u5927\u98ef\u5e97-\u5206\u9928","stars":-1,"review_nr":30,"currency_code":"TWD","location":{"lat":25.0451071601685,"lng":121.513853728836},"detail_type":"object","detail":{"type":"hotel","rating":3.9,"description":"","name":"\u82b1\u83ef\u5927\u98ef\u5e97-\u5206\u9928","imgUrl":"\/api\/hotels\/photo\/1781653","price":"5600.00","bookingUrl":"TODO","FBComments":[]}},{"price":"3135.00","address":"\u6210\u90fd\u8def27\u5df710\u865f4\u6a13, \u842c\u83ef\u5340, \u53f0\u5317\u5e02","name":"\u897f\u9580\u8857\u89d2\u65c5\u5e97","stars":-1,"review_nr":618,"currency_code":"TWD","location":{"lat":25.0431932040073,"lng":121.506789771164},"detail_type":"object","detail":{"type":"hotel","rating":3.9,"description":"","name":"\u897f\u9580\u8857\u89d2\u65c5\u5e97","imgUrl":"\/api\/hotels\/photo\/1251649","price":"3135.00","bookingUrl":"TODO","FBComments":[]}},{"price":"6500.00","address":"\u5167\u6c5f\u885755\u5df711\u865f, \u842c\u83ef\u5340, \u53f0\u5317\u5e02","name":"\u591c\u5149\u5546\u65c5","stars":3,"review_nr":109,"currency_code":"TWD","location":{"lat":25.0422443887185,"lng":121.505267322063},"detail_type":"object","detail":{"type":"hotel","rating":3.9,"description":"","name":"\u591c\u5149\u5546\u65c5","imgUrl":"\/api\/hotels\/photo\/1003114","price":"6500.00","bookingUrl":"TODO","FBComments":[]}},{"price":"5000.00","address":"\u91d1\u5c71\u5357\u8def\u4e8c\u6bb57\u865f, \u5927\u5b89\u5340, \u53f0\u5317\u5e02","name":"\u9999\u8549\u5ba2\u4eba","stars":-1,"review_nr":615,"currency_code":"TWD","location":{"lat":25.0336154818356,"lng":121.527367656588},"detail_type":"object","detail":{"type":"hotel","rating":3.9,"description":"","name":"\u9999\u8549\u5ba2\u4eba","imgUrl":"\/api\/hotels\/photo\/1516157","price":"5000.00","bookingUrl":"TODO","FBComments":[]}},{"price":"2774.00","address":"\u5ef6\u5e73\u5357\u8def21\u865f2\u6a13, \u4e2d\u6b63\u5340, \u53f0\u5317\u5e02","name":"\u760b\u53f0\u5317\u9752\u65c5 - \u7fa4\u6085486","stars":-1,"review_nr":690,"currency_code":"TWD","location":{"lat":25.0456772708661,"lng":121.51069611311},"detail_type":"object","detail":{"type":"hotel","rating":3.9,"description":"","name":"\u760b\u53f0\u5317\u9752\u65c5 - \u7fa4\u6085486","imgUrl":"\/api\/hotels\/photo\/1119346","price":"2774.00","bookingUrl":"TODO","FBComments":[]}},{"price":"3100.00","address":"\u4fe1\u7fa9\u8def\u4e8c\u6bb5110\u865f, \u53f0\u5317\u5e02","name":"\u6771\u95803\u865f\u81a0\u56ca\u65c5\u5e97","stars":-1,"review_nr":219,"currency_code":"TWD","location":{"lat":25.0337950463723,"lng":121.527756471187},"detail_type":"object","detail":{"type":"hotel","rating":3.9,"description":"","name":"\u6771\u95803\u865f\u81a0\u56ca\u65c5\u5e97","imgUrl":"\/api\/hotels\/photo\/1905214","price":"3100.00","bookingUrl":"TODO","FBComments":[]}},{"price":"4740.00","address":"\u5929\u6d25\u885743\u865f, \u4e2d\u5c71\u5340, \u53f0\u5317\u5e02","name":"\u65c5\u4eba\u65e5\u8a8c\u9752\u5e74\u65c5\u9928","stars":-1,"review_nr":257,"currency_code":"TWD","location":{"lat":25.0499996645431,"lng":121.523077523314},"detail_type":"object","detail":{"type":"hotel","rating":3.9,"description":"","name":"\u65c5\u4eba\u65e5\u8a8c\u9752\u5e74\u65c5\u9928","imgUrl":"\/api\/hotels\/photo\/1508169","price":"4740.00","bookingUrl":"TODO","FBComments":[]}},{"price":"4480.00","address":"\u516c\u5712\u8def13\u865f9\u6a13, \u4e2d\u6b63\u5340, \u53f0\u5317\u5e02","name":"Work Inn \u7aa9\u5ba2","stars":-1,"review_nr":774,"currency_code":"TWD","location":{"lat":25.0456090789032,"lng":121.517482101917},"detail_type":"object","detail":{"type":"hotel","rating":3.9,"description":"","name":"Work Inn \u7aa9\u5ba2","imgUrl":"\/api\/hotels\/photo\/1445839","price":"4480.00","bookingUrl":"TODO","FBComments":[]}},{"price":"4680.00","address":"\u4fe1\u7fa9\u8def\u4e09\u6bb5, \u5927\u5b89\u5340, \u53f0\u5317\u5e02","name":"\u4e00\u9edeHomestay","stars":-1,"review_nr":104,"currency_code":"TWD","location":{"lat":25.0334106171397,"lng":121.542457761552},"detail_type":"object","detail":{"type":"hotel","rating":3.9,"description":"","name":"\u4e00\u9edeHomestay","imgUrl":"\/api\/hotels\/photo\/1812989","price":"4680.00","bookingUrl":"TODO","FBComments":[]}},{"price":"4710.00","address":"\u9577\u5b89\u897f\u8def172\u5df75\u5f047\u865f, \u5927\u540c\u5340, \u53f0\u5317\u5e02","name":"\u53f0\u5317CT\u5c4b","stars":-1,"review_nr":28,"currency_code":"TWD","location":{"lat":25.0506646102894,"lng":121.515799469906},"detail_type":"object","detail":{"type":"hotel","rating":3.9,"description":"","name":"\u53f0\u5317CT\u5c4b","imgUrl":"\/api\/hotels\/photo\/1526915","price":"4710.00","bookingUrl":"TODO","FBComments":[]}},{"price":"3426.00","address":"\u7f85\u65af\u798f\u8def\u4e09\u6bb5240\u5df7, \u4e2d\u6b63\u5340, \u53f0\u5317\u5e02","name":"\u5bb6\u65c5\u9928","stars":-1,"review_nr":16,"currency_code":"TWD","location":{"lat":25.0175119,"lng":121.5291649},"detail_type":"object","detail":{"type":"hotel","rating":3.9,"description":"","name":"\u5bb6\u65c5\u9928","imgUrl":"\/api\/hotels\/photo\/2086808","price":"3426.00","bookingUrl":"TODO","FBComments":[]}},{"price":"3100.00","address":"\u6cf0\u9806\u885744\u5df717\u865f3\u697c, \u5927\u5b89\u5340, \u53f0\u5317\u5e02","name":"\u661f\u8fb0\u5c0f\u5c4b","stars":-1,"review_nr":151,"currency_code":"TWD","location":{"lat":25.023839,"lng":121.530294},"detail_type":"object","detail":{"type":"hotel","rating":3.9,"description":"","name":"\u661f\u8fb0\u5c0f\u5c4b","imgUrl":"\/api\/hotels\/photo\/1954490","price":"3100.00","bookingUrl":"TODO","FBComments":[]}},{"price":"3780.00","address":"\u5ee3\u5dde\u885795-3\u865f2\u6a13, \u842c\u83ef\u5340, \u53f0\u5317\u5e02","name":"\u53f0\u5317\u52a0\u5dde\u5ba2\u68e7","stars":-1,"review_nr":263,"currency_code":"TWD","location":{"lat":25.0366395,"lng":121.503664111639},"detail_type":"object","detail":{"type":"hotel","rating":3.9,"description":"","name":"\u53f0\u5317\u52a0\u5dde\u5ba2\u68e7","imgUrl":"\/api\/hotels\/photo\/1753423","price":"3780.00","bookingUrl":"TODO","FBComments":[]}},{"price":"6000.00","address":"\u6797\u68ee\u5317\u8def72\u865f, \u4e2d\u5c71\u5340, \u53f0\u5317\u5e02","name":"\u65af\u683c\u52a0\u65c5\u5e97","stars":-1,"review_nr":64,"currency_code":"TWD","location":{"lat":25.0495477823628,"lng":121.524559150262},"detail_type":"object","detail":{"type":"hotel","rating":3.9,"description":"","name":"\u65af\u683c\u52a0\u65c5\u5e97","imgUrl":"\/api\/hotels\/photo\/1873222","price":"6000.00","bookingUrl":"TODO","FBComments":[]}},{"price":"3800.00","address":"\u5be7\u6ce2\u6771\u88579\u5df713-1\u865f, \u4e2d\u6b63\u5340, \u53f0\u5317\u5e02","name":"\u8c93\u8349\u5802\u5973\u820d","stars":-1,"review_nr":99,"currency_code":"TWD","location":{"lat":25.0328250738416,"lng":121.519466936588},"detail_type":"object","detail":{"type":"hotel","rating":3.9,"description":"","name":"\u8c93\u8349\u5802\u5973\u820d","imgUrl":"\/api\/hotels\/photo\/1644530","price":"3800.00","bookingUrl":"TODO","FBComments":[]}},{"price":"4240.00","address":"\u6f22\u4e2d\u8857191\u865f2\u6a13, \u842c\u83ef\u5340, \u53f0\u5317\u5e02","name":"\u9577\u6f22\u9752\u65c5","stars":-1,"review_nr":30,"currency_code":"TWD","location":{"lat":25.041036,"lng":121.506802},"detail_type":"object","detail":{"type":"hotel","rating":3.9,"description":"","name":"\u9577\u6f22\u9752\u65c5","imgUrl":"\/api\/hotels\/photo\/1949164","price":"4240.00","bookingUrl":"TODO","FBComments":[]}},{"price":"2640.00","address":"\u83ef\u9670\u8857179\u865f3\u6a13, \u5927\u540c\u5340, \u53f0\u5317\u5e02","name":"\u7345\u57ce\u65c5\u5e97","stars":-1,"review_nr":386,"currency_code":"TWD","location":{"lat":25.0503567571354,"lng":121.515318253967},"detail_type":"object","detail":{"type":"hotel","rating":3.9,"description":"","name":"\u7345\u57ce\u65c5\u5e97","imgUrl":"\/api\/hotels\/photo\/1285232","price":"2640.00","bookingUrl":"TODO","FBComments":[]}}]